[{
	"icao": "5A8",
	"size": 2,
	"name": "Aleknagik / New Airport",
	"lat": 59.2826004,
	"lon": -158.6179962,
	"iata": "WKK"
}, {
	"icao": "AGGH",
	"size": 2,
	"name": "Honiara International Airport",
	"lat": -9.42800045,
	"lon": 160.0549927,
	"iata": "HIR"
}, {
	"icao": "AGGM",
	"size": 2,
	"name": "Munda Airport",
	"lat": -8.327969551,
	"lon": 157.2630005,
	"iata": "MUA"
}, {
	"icao": "ANYN",
	"size": 2,
	"name": "Nauru International Airport",
	"lat": -0.547458,
	"lon": 166.919006,
	"iata": "INU"
}, {
	"icao": "AXF",
	"size": 2,
	"name": "Alxa Left Banner Bayanhot Airport",
	"lat": 38.74831,
	"lon": 105.58858,
	"iata": "AXF"
}, {
	"icao": "AYBK",
	"size": 2,
	"name": "Buka Airport",
	"lat": -5.422319889,
	"lon": 154.6730042,
	"iata": "BUA"
}, {
	"icao": "AYCH",
	"size": 2,
	"name": "Chimbu Airport",
	"lat": -6.024290085,
	"lon": 144.970993,
	"iata": "CMU"
}, {
	"icao": "AYDU",
	"size": 2,
	"name": "Daru Airport",
	"lat": -9.086759567,
	"lon": 143.2079926,
	"iata": "DAU"
}, {
	"icao": "AYGA",
	"size": 2,
	"name": "Goroka Airport",
	"lat": -6.081689835,
	"lon": 145.3919983,
	"iata": "GKA"
}, {
	"icao": "AYGN",
	"size": 2,
	"name": "Gurney Airport",
	"lat": -10.3114996,
	"lon": 150.3339996,
	"iata": "GUR"
}, {
	"icao": "AYGR",
	"size": 2,
	"name": "Girua Airport",
	"lat": -8.80453968,
	"lon": 148.3090057,
	"iata": "PNP"
}, {
	"icao": "AYHK",
	"size": 2,
	"name": "Kimbe Airport",
	"lat": -5.462170124,
	"lon": 150.4049988,
	"iata": "HKN"
}, {
	"icao": "AYKM",
	"size": 2,
	"name": "Kerema Airport",
	"lat": -7.963610172,
	"lon": 145.7709961,
	"iata": "KMA"
}, {
	"icao": "AYKV",
	"size": 2,
	"name": "Kavieng Airport",
	"lat": -2.579400063,
	"lon": 150.8079987,
	"iata": "KVG"
}, {
	"icao": "AYMD",
	"size": 2,
	"name": "Madang Airport",
	"lat": -5.207079887,
	"lon": 145.7890015,
	"iata": "MAG"
}, {
	"icao": "AYMH",
	"size": 2,
	"name": "Mount Hagen Kagamuga Airport",
	"lat": -5.826789856,
	"lon": 144.2960052,
	"iata": "HGU"
}, {
	"icao": "AYMN",
	"size": 2,
	"name": "Mendi Airport",
	"lat": -6.14774,
	"lon": 143.656998,
	"iata": "MDU"
}, {
	"icao": "AYMO",
	"size": 2,
	"name": "Momote Airport",
	"lat": -2.06189,
	"lon": 147.423996,
	"iata": "MAS"
}, {
	"icao": "AYNZ",
	"size": 2,
	"name": "Nadzab Airport",
	"lat": -6.569803,
	"lon": 146.725977,
	"iata": "LAE"
}, {
	"icao": "AYPY",
	"size": 1,
	"name": "Port Moresby Jacksons International Airport",
	"lat": -9.443380356,
	"lon": 147.2200012,
	"iata": "POM"
}, {
	"icao": "AYTK",
	"size": 2,
	"name": "Tokua Airport",
	"lat": -4.340459824,
	"lon": 152.3800049,
	"iata": "RAB"
}, {
	"icao": "AYVN",
	"size": 2,
	"name": "Vanimo Airport",
	"lat": -2.6926,
	"lon": 141.3028,
	"iata": "VAI"
}, {
	"icao": "AYWD",
	"size": 2,
	"name": "Wapenamanda Airport",
	"lat": -5.643300056,
	"lon": 143.8950043,
	"iata": "WBM"
}, {
	"icao": "AYWK",
	"size": 2,
	"name": "Wewak International Airport",
	"lat": -3.583830118,
	"lon": 143.6690063,
	"iata": "WWK"
}, {
	"icao": "BCW",
	"size": 2,
	"name": "Benguera Island Airport",
	"lat": -21.85330009,
	"lon": 35.43830109,
	"iata": "BCW"
}, {
	"icao": "BGAA",
	"size": 2,
	"name": "Aasiaat Airport",
	"lat": 68.72180176,
	"lon": -52.78469849,
	"iata": "JEG"
}, {
	"icao": "BGBW",
	"size": 2,
	"name": "Narsarsuaq Airport",
	"lat": 61.16049957,
	"lon": -45.42599869,
	"iata": "UAK"
}, {
	"icao": "BGGH",
	"size": 2,
	"name": "Godthaab / Nuuk Airport",
	"lat": 64.19090271,
	"lon": -51.67810059,
	"iata": "GOH"
}, {
	"icao": "BGSF",
	"size": 2,
	"name": "Kangerlussuaq Airport",
	"lat": 67.0122219,
	"lon": -50.71160316,
	"iata": "SFJ"
}, {
	"icao": "BGSS",
	"size": 2,
	"name": "Sisimiut Airport",
	"lat": 66.951302,
	"lon": -53.729301,
	"iata": "JHS"
}, {
	"icao": "BGTL",
	"size": 2,
	"name": "Thule Air Base",
	"lat": 76.53119659,
	"lon": -68.70320129,
	"iata": "THU"
}, {
	"icao": "BIAR",
	"size": 2,
	"name": "Akureyri Airport",
	"lat": 65.66000366,
	"lon": -18.0727005,
	"iata": "AEY"
}, {
	"icao": "BIEG",
	"size": 2,
	"name": "Egilsstaðir Airport",
	"lat": 65.28330231,
	"lon": -14.40139961,
	"iata": "EGS"
}, {
	"icao": "BIHN",
	"size": 2,
	"name": "Hornafjörður Airport",
	"lat": 64.295601,
	"lon": -15.2272,
	"iata": "HFN"
}, {
	"icao": "BIHU",
	"size": 2,
	"name": "Húsavík Airport",
	"lat": 65.952301,
	"lon": -17.426001,
	"iata": "HZK"
}, {
	"icao": "BIIS",
	"size": 2,
	"name": "Ísafjörður Airport",
	"lat": 66.05809784,
	"lon": -23.13529968,
	"iata": "IFJ"
}, {
	"icao": "BIKF",
	"size": 1,
	"name": "Keflavik International Airport",
	"lat": 63.985001,
	"lon": -22.6056,
	"iata": "KEF"
}, {
	"icao": "BIRK",
	"size": 2,
	"name": "Reykjavik Airport",
	"lat": 64.12999725,
	"lon": -21.94059944,
	"iata": "RKV"
}, {
	"icao": "BKPR",
	"size": 1,
	"name": "Priština International Airport",
	"lat": 42.5728,
	"lon": 21.035801,
	"iata": "PRN"
}, {
	"icao": "BZ-BGK",
	"size": 2,
	"name": "Big Creek Airport",
	"lat": 16.51936913,
	"lon": -88.40791321,
	"iata": "BGK"
}, {
	"icao": "BZ-CUK",
	"size": 2,
	"name": "Caye Caulker Airport",
	"lat": 17.73469925,
	"lon": -88.03250122,
	"iata": "CUK"
}, {
	"icao": "BZ-CYC",
	"size": 2,
	"name": "Caye Chapel Airport",
	"lat": 17.70079994,
	"lon": -88.04109955,
	"iata": "CYC"
}, {
	"icao": "BZ-CZH",
	"size": 2,
	"name": "Corozal Municipal Airport",
	"lat": 18.38220024,
	"lon": -88.41190338,
	"iata": "CZH"
}, {
	"icao": "BZ-DGA",
	"size": 2,
	"name": "Dangriga Airport",
	"lat": 16.98250961,
	"lon": -88.23098755,
	"iata": "DGA"
}, {
	"icao": "BZ-PLJ",
	"size": 2,
	"name": "Placencia Airport",
	"lat": 16.53695679,
	"lon": -88.36151123,
	"iata": "PLJ"
}, {
	"icao": "BZ-PND",
	"size": 2,
	"name": "Punta Gorda Airport",
	"lat": 16.10239983,
	"lon": -88.8082962,
	"iata": "PND"
}, {
	"icao": "BZ-SJX",
	"size": 2,
	"name": "Sartaneja Airport",
	"lat": 18.35610008,
	"lon": -88.13079834,
	"iata": "SJX"
}, {
	"icao": "BZ-SPR",
	"size": 2,
	"name": "San Pedro Airport",
	"lat": 17.9139,
	"lon": -87.9711,
	"iata": "SPR"
}, {
	"icao": "BZ-TZA",
	"size": 2,
	"name": "Belize City Municipal Airport",
	"lat": 17.51638985,
	"lon": -88.19444275,
	"iata": "TZA"
}, {
	"icao": "CN-0010",
	"size": 2,
	"name": "Yinchuan Hedong International Airport",
	"lat": 38.322758,
	"lon": 106.393214,
	"iata": "INC"
}, {
	"icao": "CN-0011",
	"size": 2,
	"name": "Duplicate --Yantai Penglai International Airport",
	"lat": 37.65722,
	"lon": 120.9872,
	"iata": "YNT"
}, {
	"icao": "CN-0024",
	"size": 2,
	"name": "Zhangjiakou Ningyuan Airport",
	"lat": 40.73860168,
	"lon": 114.9300003,
	"iata": "ZQZ"
}, {
	"icao": "CN-0027",
	"size": 2,
	"name": "Baoshan Yunduan Airport",
	"lat": 25.053301,
	"lon": 99.168297,
	"iata": "BSD"
}, {
	"icao": "CN-0040",
	"size": 2,
	"name": "Lintsang Airfield",
	"lat": 23.73810005,
	"lon": 100.0250015,
	"iata": "LNJ"
}, {
	"icao": "CN-0046",
	"size": 2,
	"name": "Shigatse Air Base",
	"lat": 29.3519,
	"lon": 89.311401,
	"iata": "RKZ"
}, {
	"icao": "CN-0050",
	"size": 2,
	"name": "Bao'anying Airport",
	"lat": 26.54,
	"lon": 101.79852,
	"iata": "PZI"
}, {
	"icao": "CN-0061",
	"size": 2,
	"name": "Foshan Shadi Airport",
	"lat": 23.08329964,
	"lon": 113.0699997,
	"iata": "FUO"
}, {
	"icao": "CN-0067",
	"size": 2,
	"name": "Xinyang Minggang Airport",
	"lat": 32.540819,
	"lon": 114.079141,
	"iata": "XAI"
}, {
	"icao": "CN-0068",
	"size": 2,
	"name": "Huizhou Airport",
	"lat": 23.04999924,
	"lon": 114.5999985,
	"iata": "HUZ"
}, {
	"icao": "CN-0081",
	"size": 2,
	"name": "Jinggangshan Airport",
	"lat": 26.85689926,
	"lon": 114.7369995,
	"iata": "JGS"
}, {
	"icao": "CN-0082",
	"size": 2,
	"name": "Baise Youjiang Airport",
	"lat": 23.72060013,
	"lon": 106.9599991,
	"iata": "AEB"
}, {
	"icao": "CN-0113",
	"size": 2,
	"name": "Altay Air Base",
	"lat": 47.74988556,
	"lon": 88.0858078,
	"iata": "AAT"
}, {
	"icao": "CN-0130",
	"size": 2,
	"name": "Tianshui Maijishan Airport",
	"lat": 34.55939865,
	"lon": 105.8600006,
	"iata": "THQ"
}, {
	"icao": "CN-0143",
	"size": 2,
	"name": "Zhangye Ganzhou Airport",
	"lat": 38.80189896,
	"lon": 100.6750031,
	"iata": "YZY"
}, {
	"icao": "CN-0189",
	"size": 2,
	"name": "Dandong Airport",
	"lat": 40.0247,
	"lon": 124.286003,
	"iata": "DDG"
}, {
	"icao": "CY-0002",
	"size": 2,
	"name": "Lefkoniko Airport",
	"lat": 35.235947,
	"lon": 33.724358,
	"iata": "GEC"
}, {
	"icao": "CYAC",
	"size": 2,
	"name": "Cat Lake Airport",
	"lat": 51.72719955,
	"lon": -91.82440186,
	"iata": "YAC"
}, {
	"icao": "CYAG",
	"size": 2,
	"name": "Fort Frances Municipal Airport",
	"lat": 48.65420151,
	"lon": -93.43969727,
	"iata": "YAG"
}, {
	"icao": "CYAM",
	"size": 2,
	"name": "Sault Ste Marie Airport",
	"lat": 46.485001,
	"lon": -84.509399,
	"iata": "YAM"
}, {
	"icao": "CYAQ",
	"size": 2,
	"name": "Kasabonika Airport",
	"lat": 53.52470016,
	"lon": -88.64279938,
	"iata": "XKS"
}, {
	"icao": "CYAS",
	"size": 2,
	"name": "Kangirsuk Airport",
	"lat": 60.02719879,
	"lon": -69.99919891,
	"iata": "YKG"
}, {
	"icao": "CYAT",
	"size": 2,
	"name": "Attawapiskat Airport",
	"lat": 52.92750168,
	"lon": -82.43190002,
	"iata": "YAT"
}, {
	"icao": "CYAX",
	"size": 2,
	"name": "Lac Du Bonnet Airport",
	"lat": 50.294399,
	"lon": -96.010002,
	"iata": ""
}, {
	"icao": "CYAY",
	"size": 2,
	"name": "St. Anthony Airport",
	"lat": 51.39189911,
	"lon": -56.08309937,
	"iata": "YAY"
}, {
	"icao": "CYAZ",
	"size": 2,
	"name": "Tofino / Long Beach Airport",
	"lat": 49.079833,
	"lon": -125.775583,
	"iata": "YAZ"
}, {
	"icao": "CYBB",
	"size": 2,
	"name": "Kugaaruk Airport",
	"lat": 68.534401,
	"lon": -89.808098,
	"iata": "YBB"
}, {
	"icao": "CYBC",
	"size": 2,
	"name": "Baie Comeau Airport",
	"lat": 49.1325,
	"lon": -68.204399,
	"iata": "YBC"
}, {
	"icao": "CYBD",
	"size": 2,
	"name": "Bella Coola Airport",
	"lat": 52.387501,
	"lon": -126.596001,
	"iata": "QBC"
}, {
	"icao": "CYBE",
	"size": 2,
	"name": "Uranium City Airport",
	"lat": 59.56140137,
	"lon": -108.4810028,
	"iata": "YBE"
}, {
	"icao": "CYBF",
	"size": 2,
	"name": "Bonnyville Airport",
	"lat": 54.304199,
	"lon": -110.744003,
	"iata": "YBY"
}, {
	"icao": "CYBG",
	"size": 2,
	"name": "CFB Bagotville",
	"lat": 48.33060074,
	"lon": -70.99639893,
	"iata": "YBG"
}, {
	"icao": "CYBK",
	"size": 2,
	"name": "Baker Lake Airport",
	"lat": 64.29889679,
	"lon": -96.07779694,
	"iata": "YBK"
}, {
	"icao": "CYBL",
	"size": 2,
	"name": "Campbell River Airport",
	"lat": 49.950802,
	"lon": -125.271004,
	"iata": "YBL"
}, {
	"icao": "CYBQ",
	"size": 2,
	"name": "Tadoule Lake Airport",
	"lat": 58.7061,
	"lon": -98.512199,
	"iata": "XTL"
}, {
	"icao": "CYBR",
	"size": 2,
	"name": "Brandon Municipal Airport",
	"lat": 49.91,
	"lon": -99.951897,
	"iata": "YBR"
}, {
	"icao": "CYBT",
	"size": 2,
	"name": "Brochet Airport",
	"lat": 57.8894,
	"lon": -101.679001,
	"iata": "YBT"
}, {
	"icao": "CYBV",
	"size": 2,
	"name": "Berens River Airport",
	"lat": 52.358898,
	"lon": -97.018303,
	"iata": "YBV"
}, {
	"icao": "CYBX",
	"size": 2,
	"name": "Lourdes de Blanc Sablon Airport",
	"lat": 51.4435997,
	"lon": -57.18529892,
	"iata": "YBX"
}, {
	"icao": "CYCA",
	"size": 2,
	"name": "Cartwright Airport",
	"lat": 53.68280029,
	"lon": -57.04190063,
	"iata": "YRF"
}, {
	"icao": "CYCB",
	"size": 2,
	"name": "Cambridge Bay Airport",
	"lat": 69.10810089,
	"lon": -105.1380005,
	"iata": "YCB"
}, {
	"icao": "CYCD",
	"size": 2,
	"name": "Nanaimo Airport",
	"lat": 49.05497022,
	"lon": -123.8698626,
	"iata": "YCD"
}, {
	"icao": "CYCG",
	"size": 2,
	"name": "Castlegar/West Kootenay Regional Airport",
	"lat": 49.29639816,
	"lon": -117.6320038,
	"iata": "YCG"
}, {
	"icao": "CYCH",
	"size": 2,
	"name": "Miramichi Airport",
	"lat": 47.007801,
	"lon": -65.449203,
	"iata": "YCH"
}, {
	"icao": "CYCL",
	"size": 2,
	"name": "Charlo Airport",
	"lat": 47.990799,
	"lon": -66.330299,
	"iata": "YCL"
}, {
	"icao": "CYCO",
	"size": 2,
	"name": "Kugluktuk Airport",
	"lat": 67.816704,
	"lon": -115.143997,
	"iata": "YCO"
}, {
	"icao": "CYCS",
	"size": 2,
	"name": "Chesterfield Inlet Airport",
	"lat": 63.34690094,
	"lon": -90.73110199,
	"iata": "YCS"
}, {
	"icao": "CYCY",
	"size": 2,
	"name": "Clyde River Airport",
	"lat": 70.48609924,
	"lon": -68.51670074,
	"iata": "YCY"
}, {
	"icao": "CYDA",
	"size": 2,
	"name": "Dawson City Airport",
	"lat": 64.04309845,
	"lon": -139.128006,
	"iata": "YDA"
}, {
	"icao": "CYDF",
	"size": 2,
	"name": "Deer Lake Airport",
	"lat": 49.21080017,
	"lon": -57.39139938,
	"iata": "YDF"
}, {
	"icao": "CYDN",
	"size": 2,
	"name": "Dauphin Barker Airport",
	"lat": 51.10079956,
	"lon": -100.052002,
	"iata": "YDN"
}, {
	"icao": "CYDP",
	"size": 2,
	"name": "Nain Airport",
	"lat": 56.54919815,
	"lon": -61.68030167,
	"iata": "YDP"
}, {
	"icao": "CYDQ",
	"size": 2,
	"name": "Dawson Creek Airport",
	"lat": 55.74229813,
	"lon": -120.1829987,
	"iata": "YDQ"
}, {
	"icao": "CYEG",
	"size": 1,
	"name": "Edmonton International Airport",
	"lat": 53.30970001,
	"lon": -113.5800018,
	"iata": "YEG"
}, {
	"icao": "CYEK",
	"size": 2,
	"name": "Arviat Airport",
	"lat": 61.09420013,
	"lon": -94.07080078,
	"iata": "YEK"
}, {
	"icao": "CYER",
	"size": 2,
	"name": "Fort Severn Airport",
	"lat": 56.01890182,
	"lon": -87.67610168,
	"iata": "YER"
}, {
	"icao": "CYEV",
	"size": 2,
	"name": "Inuvik Mike Zubko Airport",
	"lat": 68.30419922,
	"lon": -133.4830017,
	"iata": "YEV"
}, {
	"icao": "CYFA",
	"size": 2,
	"name": "Fort Albany Airport",
	"lat": 52.20140076,
	"lon": -81.69689941,
	"iata": "YFA"
}, {
	"icao": "CYFB",
	"size": 2,
	"name": "Iqaluit Airport",
	"lat": 63.756402,
	"lon": -68.555801,
	"iata": "YFB"
}, {
	"icao": "CYFC",
	"size": 2,
	"name": "Fredericton Airport",
	"lat": 45.8689003,
	"lon": -66.53720093,
	"iata": "YFC"
}, {
	"icao": "CYFH",
	"size": 2,
	"name": "Fort Hope Airport",
	"lat": 51.56190109,
	"lon": -87.90779877,
	"iata": "YFH"
}, {
	"icao": "CYFJ",
	"size": 2,
	"name": "La Macaza / Mont-Tremblant International Inc Airport",
	"lat": 46.409401,
	"lon": -74.779999,
	"iata": "YTM"
}, {
	"icao": "CYFO",
	"size": 2,
	"name": "Flin Flon Airport",
	"lat": 54.67810059,
	"lon": -101.6819992,
	"iata": "YFO"
}, {
	"icao": "CYFS",
	"size": 2,
	"name": "Fort Simpson Airport",
	"lat": 61.7602005,
	"lon": -121.2369995,
	"iata": "YFS"
}, {
	"icao": "CYFT",
	"size": 2,
	"name": "Makkovik Airport",
	"lat": 55.07690048,
	"lon": -59.18640137,
	"iata": "YMN"
}, {
	"icao": "CYGB",
	"size": 2,
	"name": "Texada Gillies Bay Airport",
	"lat": 49.69419861,
	"lon": -124.5179977,
	"iata": "YGB"
}, {
	"icao": "CYGH",
	"size": 2,
	"name": "Fort Good Hope Airport",
	"lat": 66.24079895,
	"lon": -128.651001,
	"iata": "YGH"
}, {
	"icao": "CYGK",
	"size": 2,
	"name": "Kingston Norman Rogers Airport",
	"lat": 44.22529984,
	"lon": -76.59690094,
	"iata": "YGK"
}, {
	"icao": "CYGL",
	"size": 2,
	"name": "La Grande Rivière Airport",
	"lat": 53.62530136,
	"lon": -77.70420074,
	"iata": "YGL"
}, {
	"icao": "CYGO",
	"size": 2,
	"name": "Gods Lake Narrows Airport",
	"lat": 54.55889893,
	"lon": -94.49140167,
	"iata": "YGO"
}, {
	"icao": "CYGP",
	"size": 2,
	"name": "Gaspé (Michel-Pouliot) Airport",
	"lat": 48.77529907,
	"lon": -64.47859955,
	"iata": "YGP"
}, {
	"icao": "CYGR",
	"size": 2,
	"name": "Îles-de-la-Madeleine Airport",
	"lat": 47.42470169,
	"lon": -61.77809906,
	"iata": "YGR"
}, {
	"icao": "CYGT",
	"size": 2,
	"name": "Igloolik Airport",
	"lat": 69.36470032,
	"lon": -81.81610107,
	"iata": "YGT"
}, {
	"icao": "CYGW",
	"size": 2,
	"name": "Kuujjuarapik Airport",
	"lat": 55.2818985,
	"lon": -77.76529694,
	"iata": "YGW"
}, {
	"icao": "CYGX",
	"size": 2,
	"name": "Gillam Airport",
	"lat": 56.35749817,
	"lon": -94.71060181,
	"iata": "YGX"
}, {
	"icao": "CYGZ",
	"size": 2,
	"name": "Grise Fiord Airport",
	"lat": 76.42610168,
	"lon": -82.90920258,
	"iata": "YGZ"
}, {
	"icao": "CYHA",
	"size": 2,
	"name": "Quaqtaq Airport",
	"lat": 61.04639816,
	"lon": -69.61779785,
	"iata": "YQC"
}, {
	"icao": "CYHD",
	"size": 2,
	"name": "Dryden Regional Airport",
	"lat": 49.831699,
	"lon": -92.744202,
	"iata": "YHD"
}, {
	"icao": "CYHH",
	"size": 2,
	"name": "Nemiscau Airport",
	"lat": 51.69110107,
	"lon": -76.13559723,
	"iata": "YNS"
}, {
	"icao": "CYHI",
	"size": 2,
	"name": "Ulukhaktok Holman Airport",
	"lat": 70.76280212,
	"lon": -117.8059998,
	"iata": "YHI"
}, {
	"icao": "CYHK",
	"size": 2,
	"name": "Gjoa Haven Airport",
	"lat": 68.63559723,
	"lon": -95.84970093,
	"iata": "YHK"
}, {
	"icao": "CYHM",
	"size": 2,
	"name": "John C. Munro Hamilton International Airport",
	"lat": 43.17359924,
	"lon": -79.93499756,
	"iata": "YHM"
}, {
	"icao": "CYHO",
	"size": 2,
	"name": "Hopedale Airport",
	"lat": 55.44829941,
	"lon": -60.22859955,
	"iata": "YHO"
}, {
	"icao": "CYHR",
	"size": 2,
	"name": "Chevery Airport",
	"lat": 50.46889877,
	"lon": -59.63669968,
	"iata": "YHR"
}, {
	"icao": "CYHU",
	"size": 2,
	"name": "Montréal / Saint-Hubert Airport",
	"lat": 45.51750183,
	"lon": -73.41690063,
	"iata": "YHU"
}, {
	"icao": "CYHY",
	"size": 2,
	"name": "Hay River / Merlyn Carter Airport",
	"lat": 60.83969879,
	"lon": -115.7829971,
	"iata": "YHY"
}, {
	"icao": "CYHZ",
	"size": 1,
	"name": "Halifax / Stanfield International Airport",
	"lat": 44.88079834,
	"lon": -63.50859833,
	"iata": "YHZ"
}, {
	"icao": "CYIK",
	"size": 2,
	"name": "Ivujivik Airport",
	"lat": 62.41730118,
	"lon": -77.9253006,
	"iata": "YIK"
}, {
	"icao": "CYIO",
	"size": 2,
	"name": "Pond Inlet Airport",
	"lat": 72.6832962,
	"lon": -77.96669769,
	"iata": "YIO"
}, {
	"icao": "CYIV",
	"size": 2,
	"name": "Island Lake Airport",
	"lat": 53.85720062,
	"lon": -94.6536026,
	"iata": "YIV"
}, {
	"icao": "CYJT",
	"size": 2,
	"name": "Stephenville Airport",
	"lat": 48.5442009,
	"lon": -58.54999924,
	"iata": "YJT"
}, {
	"icao": "CYKA",
	"size": 2,
	"name": "Kamloops Airport",
	"lat": 50.70220184,
	"lon": -120.4440002,
	"iata": "YKA"
}, {
	"icao": "CYKD",
	"size": 2,
	"name": "Aklavik/Freddie Carmichael Airport",
	"lat": 68.223297,
	"lon": -135.00599,
	"iata": "LAK"
}, {
	"icao": "CYKF",
	"size": 2,
	"name": "Waterloo Airport",
	"lat": 43.46080017,
	"lon": -80.37860107,
	"iata": "YKF"
}, {
	"icao": "CYKG",
	"size": 2,
	"name": "Kangiqsujuaq (Wakeham Bay) Airport",
	"lat": 61.58860016,
	"lon": -71.92939758,
	"iata": "YWB"
}, {
	"icao": "CYKL",
	"size": 2,
	"name": "Schefferville Airport",
	"lat": 54.80530167,
	"lon": -66.80529785,
	"iata": "YKL"
}, {
	"icao": "CYKO",
	"size": 2,
	"name": "Akulivik Airport",
	"lat": 60.8185997,
	"lon": -78.14859772,
	"iata": "AKV"
}, {
	"icao": "CYKQ",
	"size": 2,
	"name": "Waskaganish Airport",
	"lat": 51.47330093,
	"lon": -78.75830078,
	"iata": "YKQ"
}, {
	"icao": "CYLA",
	"size": 2,
	"name": "Aupaluk Airport",
	"lat": 59.29669952,
	"lon": -69.59970093,
	"iata": "YPJ"
}, {
	"icao": "CYLC",
	"size": 2,
	"name": "Kimmirut Airport",
	"lat": 62.84999847,
	"lon": -69.88330078,
	"iata": "YLC"
}, {
	"icao": "CYLH",
	"size": 2,
	"name": "Lansdowne House Airport",
	"lat": 52.1955986,
	"lon": -87.93419647,
	"iata": "YLH"
}, {
	"icao": "CYLK",
	"size": 2,
	"name": "Lutselk'e Airport",
	"lat": 62.418303,
	"lon": -110.681998,
	"iata": "YSG"
}, {
	"icao": "CYLL",
	"size": 2,
	"name": "Lloydminster Airport",
	"lat": 53.30920029,
	"lon": -110.072998,
	"iata": "YLL"
}, {
	"icao": "CYLU",
	"size": 2,
	"name": "Kangiqsualujjuaq (Georges River) Airport",
	"lat": 58.71139908,
	"lon": -65.99279785,
	"iata": "XGR"
}, {
	"icao": "CYLW",
	"size": 2,
	"name": "Kelowna International Airport",
	"lat": 49.95610046,
	"lon": -119.3779984,
	"iata": "YLW"
}, {
	"icao": "CYMH",
	"size": 2,
	"name": "Mary's Harbour Airport",
	"lat": 52.30279922,
	"lon": -55.84719849,
	"iata": "YMH"
}, {
	"icao": "CYMM",
	"size": 2,
	"name": "Fort McMurray Airport",
	"lat": 56.65330124,
	"lon": -111.2220001,
	"iata": "YMM"
}, {
	"icao": "CYMO",
	"size": 2,
	"name": "Moosonee Airport",
	"lat": 51.29109955,
	"lon": -80.60780334,
	"iata": "YMO"
}, {
	"icao": "CYMT",
	"size": 2,
	"name": "Chapais Airport",
	"lat": 49.77190018,
	"lon": -74.52809906,
	"iata": "YMT"
}, {
	"icao": "CYMU",
	"size": 2,
	"name": "Umiujaq Airport",
	"lat": 56.53609848,
	"lon": -76.51830292,
	"iata": "YUD"
}, {
	"icao": "CYNA",
	"size": 2,
	"name": "Natashquan Airport",
	"lat": 50.18999863,
	"lon": -61.78919983,
	"iata": "YNA"
}, {
	"icao": "CYNC",
	"size": 2,
	"name": "Wemindji Airport",
	"lat": 53.01060104,
	"lon": -78.83110046,
	"iata": "YNC"
}, {
	"icao": "CYND",
	"size": 2,
	"name": "Ottawa / Gatineau Airport",
	"lat": 45.521702,
	"lon": -75.563599,
	"iata": "YND"
}, {
	"icao": "CYNE",
	"size": 2,
	"name": "Norway House Airport",
	"lat": 53.95830154,
	"lon": -97.84420013,
	"iata": "YNE"
}, {
	"icao": "CYNL",
	"size": 2,
	"name": "Points North Landing Airport",
	"lat": 58.27669907,
	"lon": -104.0820007,
	"iata": "YNL"
}, {
	"icao": "CYOC",
	"size": 2,
	"name": "Old Crow Airport",
	"lat": 67.57060242,
	"lon": -139.8390045,
	"iata": "YOC"
}, {
	"icao": "CYOH",
	"size": 2,
	"name": "Oxford House Airport",
	"lat": 54.93330002,
	"lon": -95.27890015,
	"iata": "YOH"
}, {
	"icao": "CYOJ",
	"size": 2,
	"name": "High Level Airport",
	"lat": 58.62139893,
	"lon": -117.1650009,
	"iata": "YOJ"
}, {
	"icao": "CYOP",
	"size": 2,
	"name": "Rainbow Lake Airport",
	"lat": 58.49140167,
	"lon": -119.4079971,
	"iata": "YOP"
}, {
	"icao": "CYOW",
	"size": 1,
	"name": "Ottawa Macdonald-Cartier International Airport",
	"lat": 45.32249832,
	"lon": -75.66919708,
	"iata": "YOW"
}, {
	"icao": "CYPA",
	"size": 2,
	"name": "Prince Albert Glass Field",
	"lat": 53.21419907,
	"lon": -105.6729965,
	"iata": "YPA"
}, {
	"icao": "CYPC",
	"size": 2,
	"name": "Paulatuk (Nora Aliqatchialuk Ruben) Airport",
	"lat": 69.36083812,
	"lon": -124.07547,
	"iata": "YPC"
}, {
	"icao": "CYPE",
	"size": 2,
	"name": "Peace River Airport",
	"lat": 56.226898,
	"lon": -117.446999,
	"iata": "YPE"
}, {
	"icao": "CYPH",
	"size": 2,
	"name": "Inukjuak Airport",
	"lat": 58.47190094,
	"lon": -78.07689667,
	"iata": "YPH"
}, {
	"icao": "CYPL",
	"size": 2,
	"name": "Pickle Lake Airport",
	"lat": 51.44639969,
	"lon": -90.21420288,
	"iata": "YPL"
}, {
	"icao": "CYPM",
	"size": 2,
	"name": "Pikangikum Airport",
	"lat": 51.81969833,
	"lon": -93.97329712,
	"iata": "YPM"
}, {
	"icao": "CYPO",
	"size": 2,
	"name": "Peawanuck Airport",
	"lat": 54.98809814,
	"lon": -85.44329834,
	"iata": "YPO"
}, {
	"icao": "CYPR",
	"size": 2,
	"name": "Prince Rupert Airport",
	"lat": 54.28609848,
	"lon": -130.4450073,
	"iata": "YPR"
}, {
	"icao": "CYPW",
	"size": 2,
	"name": "Powell River Airport",
	"lat": 49.83420181,
	"lon": -124.5,
	"iata": "YPW"
}, {
	"icao": "CYPY",
	"size": 2,
	"name": "Fort Chipewyan Airport",
	"lat": 58.76720047,
	"lon": -111.1169968,
	"iata": "YPY"
}, {
	"icao": "CYQB",
	"size": 2,
	"name": "Quebec Jean Lesage International Airport",
	"lat": 46.7911,
	"lon": -71.393303,
	"iata": "YQB"
}, {
	"icao": "CYQD",
	"size": 2,
	"name": "The Pas Airport",
	"lat": 53.97140121,
	"lon": -101.0910034,
	"iata": "YQD"
}, {
	"icao": "CYQG",
	"size": 2,
	"name": "Windsor Airport",
	"lat": 42.27560043,
	"lon": -82.95559692,
	"iata": "YQG"
}, {
	"icao": "CYQK",
	"size": 2,
	"name": "Kenora Airport",
	"lat": 49.78829956,
	"lon": -94.36309814,
	"iata": "YQK"
}, {
	"icao": "CYQL",
	"size": 2,
	"name": "Lethbridge County Airport",
	"lat": 49.63029861,
	"lon": -112.8000031,
	"iata": "YQL"
}, {
	"icao": "CYQM",
	"size": 2,
	"name": "Greater Moncton Roméo LeBlanc International Airport",
	"lat": 46.112202,
	"lon": -64.678596,
	"iata": "YQM"
}, {
	"icao": "CYQN",
	"size": 2,
	"name": "Nakina Airport",
	"lat": 50.18280029,
	"lon": -86.6964035,
	"iata": "YQN"
}, {
	"icao": "CYQQ",
	"size": 2,
	"name": "Comox Airport",
	"lat": 49.71080017,
	"lon": -124.887001,
	"iata": "YQQ"
}, {
	"icao": "CYQR",
	"size": 2,
	"name": "Regina International Airport",
	"lat": 50.43190002,
	"lon": -104.6660004,
	"iata": "YQR"
}, {
	"icao": "CYQT",
	"size": 2,
	"name": "Thunder Bay Airport",
	"lat": 48.37189865,
	"lon": -89.32389832,
	"iata": "YQT"
}, {
	"icao": "CYQU",
	"size": 2,
	"name": "Grande Prairie Airport",
	"lat": 55.17969894,
	"lon": -118.8850021,
	"iata": "YQU"
}, {
	"icao": "CYQX",
	"size": 2,
	"name": "Gander International Airport",
	"lat": 48.93690109,
	"lon": -54.56809998,
	"iata": "YQX"
}, {
	"icao": "CYQY",
	"size": 2,
	"name": "Sydney / J.A. Douglas McCurdy Airport",
	"lat": 46.1614,
	"lon": -60.047798,
	"iata": "YQY"
}, {
	"icao": "CYQZ",
	"size": 2,
	"name": "Quesnel Airport",
	"lat": 53.02610016,
	"lon": -122.5100021,
	"iata": "YQZ"
}, {
	"icao": "CYRA",
	"size": 2,
	"name": "Rae Lakes Airport",
	"lat": 64.1160965,
	"lon": -117.3099976,
	"iata": "YRA"
}, {
	"icao": "CYRB",
	"size": 2,
	"name": "Resolute Bay Airport",
	"lat": 74.71690369,
	"lon": -94.9693985,
	"iata": "YRB"
}, {
	"icao": "CYRJ",
	"size": 2,
	"name": "Roberval Airport",
	"lat": 48.52000046,
	"lon": -72.26560211,
	"iata": "YRJ"
}, {
	"icao": "CYRL",
	"size": 2,
	"name": "Red Lake Airport",
	"lat": 51.06689835,
	"lon": -93.79309845,
	"iata": "YRL"
}, {
	"icao": "CYRT",
	"size": 2,
	"name": "Rankin Inlet Airport",
	"lat": 62.81140137,
	"lon": -92.11579895,
	"iata": "YRT"
}, {
	"icao": "CYSB",
	"size": 2,
	"name": "Sudbury Airport",
	"lat": 46.625,
	"lon": -80.79889679,
	"iata": "YSB"
}, {
	"icao": "CYSF",
	"size": 2,
	"name": "Stony Rapids Airport",
	"lat": 59.25030136,
	"lon": -105.8410034,
	"iata": "YSF"
}, {
	"icao": "CYSJ",
	"size": 2,
	"name": "Saint John Airport",
	"lat": 45.31610107,
	"lon": -65.89029694,
	"iata": "YSJ"
}, {
	"icao": "CYSK",
	"size": 2,
	"name": "Sanikiluaq Airport",
	"lat": 56.53779984,
	"lon": -79.24669647,
	"iata": "YSK"
}, {
	"icao": "CYSM",
	"size": 2,
	"name": "Fort Smith Airport",
	"lat": 60.02030182,
	"lon": -111.961998,
	"iata": "YSM"
}, {
	"icao": "CYST",
	"size": 2,
	"name": "St. Theresa Point Airport",
	"lat": 53.84560013,
	"lon": -94.85189819,
	"iata": "YST"
}, {
	"icao": "CYSY",
	"size": 2,
	"name": "Sachs Harbour (David Nasogaluak Jr. Saaryuaq) Airport",
	"lat": 71.99389648,
	"lon": -125.2429962,
	"iata": "YSY"
}, {
	"icao": "CYTE",
	"size": 2,
	"name": "Cape Dorset Airport",
	"lat": 64.23000336,
	"lon": -76.52670288,
	"iata": "YTE"
}, {
	"icao": "CYTF",
	"size": 2,
	"name": "Alma Airport",
	"lat": 48.50889969,
	"lon": -71.64189911,
	"iata": "YTF"
}, {
	"icao": "CYTH",
	"size": 2,
	"name": "Thompson Airport",
	"lat": 55.80110168,
	"lon": -97.86419678,
	"iata": "YTH"
}, {
	"icao": "CYTL",
	"size": 2,
	"name": "Big Trout Lake Airport",
	"lat": 53.81779861,
	"lon": -89.89689636,
	"iata": "YTL"
}, {
	"icao": "CYTS",
	"size": 2,
	"name": "Timmins/Victor M. Power",
	"lat": 48.56969833,
	"lon": -81.37670136,
	"iata": "YTS"
}, {
	"icao": "CYTZ",
	"size": 2,
	"name": "Billy Bishop Toronto City Centre Airport",
	"lat": 43.627499,
	"lon": -79.396202,
	"iata": "YTZ"
}, {
	"icao": "CYUB",
	"size": 2,
	"name": "Tuktoyaktuk Airport",
	"lat": 69.4332962,
	"lon": -133.026001,
	"iata": "YUB"
}, {
	"icao": "CYUL",
	"size": 1,
	"name": "Montreal / Pierre Elliott Trudeau International Airport",
	"lat": 45.47060013,
	"lon": -73.74079895,
	"iata": "YUL"
}, {
	"icao": "CYUT",
	"size": 2,
	"name": "Naujaat Airport",
	"lat": 66.5214,
	"lon": -86.224701,
	"iata": "YUT"
}, {
	"icao": "CYUX",
	"size": 2,
	"name": "Hall Beach Airport",
	"lat": 68.77610016,
	"lon": -81.2425,
	"iata": "YUX"
}, {
	"icao": "CYUY",
	"size": 2,
	"name": "Rouyn Noranda Airport",
	"lat": 48.20610046,
	"lon": -78.83560181,
	"iata": "YUY"
}, {
	"icao": "CYVC",
	"size": 2,
	"name": "La Ronge Airport",
	"lat": 55.15140152,
	"lon": -105.262001,
	"iata": "YVC"
}, {
	"icao": "CYVM",
	"size": 2,
	"name": "Qikiqtarjuaq Airport",
	"lat": 67.54579926,
	"lon": -64.03140259,
	"iata": "YVM"
}, {
	"icao": "CYVO",
	"size": 2,
	"name": "Val-d'Or Airport",
	"lat": 48.05329895,
	"lon": -77.78279877,
	"iata": "YVO"
}, {
	"icao": "CYVP",
	"size": 2,
	"name": "Kuujjuaq Airport",
	"lat": 58.09609985,
	"lon": -68.42690277,
	"iata": "YVP"
}, {
	"icao": "CYVQ",
	"size": 2,
	"name": "Norman Wells Airport",
	"lat": 65.28160095,
	"lon": -126.7979965,
	"iata": "YVQ"
}, {
	"icao": "CYVR",
	"size": 1,
	"name": "Vancouver International Airport",
	"lat": 49.19390106,
	"lon": -123.1839981,
	"iata": "YVR"
}, {
	"icao": "CYVZ",
	"size": 2,
	"name": "Deer Lake Airport",
	"lat": 52.65579987,
	"lon": -94.06140137,
	"iata": "YVZ"
}, {
	"icao": "CYWG",
	"size": 1,
	"name": "Winnipeg / James Armstrong Richardson International Airport",
	"lat": 49.90999985,
	"lon": -97.23989868,
	"iata": "YWG"
}, {
	"icao": "CYWJ",
	"size": 2,
	"name": "Déline Airport",
	"lat": 65.21109772,
	"lon": -123.435997,
	"iata": "YWJ"
}, {
	"icao": "CYWK",
	"size": 2,
	"name": "Wabush Airport",
	"lat": 52.9219017,
	"lon": -66.86440277,
	"iata": "YWK"
}, {
	"icao": "CYWL",
	"size": 2,
	"name": "Williams Lake Airport",
	"lat": 52.18310165,
	"lon": -122.0540009,
	"iata": "YWL"
}, {
	"icao": "CYWP",
	"size": 2,
	"name": "Webequie Airport",
	"lat": 52.9593934,
	"lon": -87.37486839,
	"iata": "YWP"
}, {
	"icao": "CYXC",
	"size": 2,
	"name": "Cranbrook/Canadian Rockies International Airport",
	"lat": 49.6108017,
	"lon": -115.7819977,
	"iata": "YXC"
}, {
	"icao": "CYXE",
	"size": 2,
	"name": "Saskatoon John G. Diefenbaker International Airport",
	"lat": 52.17079926,
	"lon": -106.6999969,
	"iata": "YXE"
}, {
	"icao": "CYXH",
	"size": 2,
	"name": "Medicine Hat Airport",
	"lat": 50.01890182,
	"lon": -110.7210007,
	"iata": "YXH"
}, {
	"icao": "CYXJ",
	"size": 2,
	"name": "Fort St John Airport",
	"lat": 56.238098,
	"lon": -120.739998,
	"iata": "YXJ"
}, {
	"icao": "CYXL",
	"size": 2,
	"name": "Sioux Lookout Airport",
	"lat": 50.11389923,
	"lon": -91.90529633,
	"iata": "YXL"
}, {
	"icao": "CYXN",
	"size": 2,
	"name": "Whale Cove Airport",
	"lat": 62.24000168,
	"lon": -92.59809875,
	"iata": "YXN"
}, {
	"icao": "CYXP",
	"size": 2,
	"name": "Pangnirtung Airport",
	"lat": 66.14499664,
	"lon": -65.71360016,
	"iata": "YXP"
}, {
	"icao": "CYXS",
	"size": 2,
	"name": "Prince George Airport",
	"lat": 53.88940048,
	"lon": -122.6790009,
	"iata": "YXS"
}, {
	"icao": "CYXT",
	"size": 2,
	"name": "Northwest Regional Airport Terrace-Kitimat",
	"lat": 54.468498,
	"lon": -128.576009,
	"iata": "YXT"
}, {
	"icao": "CYXU",
	"size": 2,
	"name": "London Airport",
	"lat": 43.035599,
	"lon": -81.1539,
	"iata": "YXU"
}, {
	"icao": "CYXX",
	"size": 2,
	"name": "Abbotsford Airport",
	"lat": 49.02529907,
	"lon": -122.3610001,
	"iata": "YXX"
}, {
	"icao": "CYXY",
	"size": 2,
	"name": "Whitehorse / Erik Nielsen International Airport",
	"lat": 60.70959854,
	"lon": -135.0670013,
	"iata": "YXY"
}, {
	"icao": "CYYB",
	"size": 2,
	"name": "North Bay Jack Garland Airport",
	"lat": 46.363602,
	"lon": -79.422798,
	"iata": "YYB"
}, {
	"icao": "CYYC",
	"size": 1,
	"name": "Calgary International Airport",
	"lat": 51.11389923,
	"lon": -114.0199966,
	"iata": "YYC"
}, {
	"icao": "CYYD",
	"size": 2,
	"name": "Smithers Airport",
	"lat": 54.8246994,
	"lon": -127.1829987,
	"iata": "YYD"
}, {
	"icao": "CYYE",
	"size": 2,
	"name": "Fort Nelson Airport",
	"lat": 58.83639908,
	"lon": -122.5970001,
	"iata": "YYE"
}, {
	"icao": "CYYF",
	"size": 2,
	"name": "Penticton Airport",
	"lat": 49.46310043,
	"lon": -119.6019974,
	"iata": "YYF"
}, {
	"icao": "CYYG",
	"size": 2,
	"name": "Charlottetown Airport",
	"lat": 46.29000092,
	"lon": -63.12110138,
	"iata": "YYG"
}, {
	"icao": "CYYH",
	"size": 2,
	"name": "Taloyoak Airport",
	"lat": 69.5467,
	"lon": -93.576698,
	"iata": "YYH"
}, {
	"icao": "CYYJ",
	"size": 1,
	"name": "Victoria International Airport",
	"lat": 48.64690018,
	"lon": -123.4260025,
	"iata": "YYJ"
}, {
	"icao": "CYYL",
	"size": 2,
	"name": "Lynn Lake Airport",
	"lat": 56.86389923,
	"lon": -101.0759964,
	"iata": "YYL"
}, {
	"icao": "CYYQ",
	"size": 2,
	"name": "Churchill Airport",
	"lat": 58.73920059,
	"lon": -94.06500244,
	"iata": "YYQ"
}, {
	"icao": "CYYR",
	"size": 2,
	"name": "Goose Bay Airport",
	"lat": 53.31919861,
	"lon": -60.42580032,
	"iata": "YYR"
}, {
	"icao": "CYYT",
	"size": 1,
	"name": "St. John's International Airport",
	"lat": 47.61859894,
	"lon": -52.75189972,
	"iata": "YYT"
}, {
	"icao": "CYYU",
	"size": 2,
	"name": "Kapuskasing Airport",
	"lat": 49.41389847,
	"lon": -82.46749878,
	"iata": "YYU"
}, {
	"icao": "CYYY",
	"size": 2,
	"name": "Mont Joli Airport",
	"lat": 48.60860062,
	"lon": -68.20809937,
	"iata": "YYY"
}, {
	"icao": "CYYZ",
	"size": 1,
	"name": "Lester B. Pearson International Airport",
	"lat": 43.67720032,
	"lon": -79.63059998,
	"iata": "YYZ"
}, {
	"icao": "CYZF",
	"size": 2,
	"name": "Yellowknife Airport",
	"lat": 62.46279907,
	"lon": -114.4400024,
	"iata": "YZF"
}, {
	"icao": "CYZG",
	"size": 2,
	"name": "Salluit Airport",
	"lat": 62.1794014,
	"lon": -75.66719818,
	"iata": "YZG"
}, {
	"icao": "CYZP",
	"size": 2,
	"name": "Sandspit Airport",
	"lat": 53.25429916,
	"lon": -131.8139954,
	"iata": "YZP"
}, {
	"icao": "CYZR",
	"size": 2,
	"name": "Chris Hadfield Airport",
	"lat": 42.99940109,
	"lon": -82.30889893,
	"iata": "YZR"
}, {
	"icao": "CYZS",
	"size": 2,
	"name": "Coral Harbour Airport",
	"lat": 64.19329834,
	"lon": -83.35939789,
	"iata": "YZS"
}, {
	"icao": "CYZT",
	"size": 2,
	"name": "Port Hardy Airport",
	"lat": 50.68059921,
	"lon": -127.3669968,
	"iata": "YZT"
}, {
	"icao": "CYZV",
	"size": 2,
	"name": "Sept-Îles Airport",
	"lat": 50.22330093,
	"lon": -66.26560211,
	"iata": "YZV"
}, {
	"icao": "CZAC",
	"size": 2,
	"name": "York Landing Airport",
	"lat": 56.08940125,
	"lon": -96.08920288,
	"iata": "ZAC"
}, {
	"icao": "CZBD",
	"size": 2,
	"name": "Ilford Airport",
	"lat": 56.06140137,
	"lon": -95.61389923,
	"iata": "ILF"
}, {
	"icao": "CZBF",
	"size": 2,
	"name": "Bathurst Airport",
	"lat": 47.62969971,
	"lon": -65.73889923,
	"iata": "ZBF"
}, {
	"icao": "CZEM",
	"size": 2,
	"name": "Eastmain River Airport",
	"lat": 52.22639847,
	"lon": -78.52249908,
	"iata": "ZEM"
}, {
	"icao": "CZFD",
	"size": 2,
	"name": "Fond-Du-Lac Airport",
	"lat": 59.33440018,
	"lon": -107.1819992,
	"iata": "ZFD"
}, {
	"icao": "CZFM",
	"size": 2,
	"name": "Fort Mcpherson Airport",
	"lat": 67.40750122,
	"lon": -134.8609924,
	"iata": "ZFM"
}, {
	"icao": "CZFN",
	"size": 2,
	"name": "Tulita Airport",
	"lat": 64.909697,
	"lon": -125.572998,
	"iata": "ZFN"
}, {
	"icao": "CZGI",
	"size": 2,
	"name": "Gods River Airport",
	"lat": 54.83969879,
	"lon": -94.07859802,
	"iata": "ZGI"
}, {
	"icao": "CZJN",
	"size": 2,
	"name": "Swan River Airport",
	"lat": 52.12060165,
	"lon": -101.2360001,
	"iata": "ZJN"
}, {
	"icao": "CZKE",
	"size": 2,
	"name": "Kashechewan Airport",
	"lat": 52.28250122,
	"lon": -81.67780304,
	"iata": "ZKE"
}, {
	"icao": "CZMD",
	"size": 2,
	"name": "Muskrat Dam Airport",
	"lat": 53.44139862,
	"lon": -91.76280212,
	"iata": "MSA"
}, {
	"icao": "CZMT",
	"size": 2,
	"name": "Masset Airport",
	"lat": 54.02750015,
	"lon": -132.125,
	"iata": "ZMT"
}, {
	"icao": "CZPB",
	"size": 2,
	"name": "Sachigo Lake Airport",
	"lat": 53.89110184,
	"lon": -92.1964035,
	"iata": "ZPB"
}, {
	"icao": "CZRJ",
	"size": 2,
	"name": "Round Lake (Weagamow Lake) Airport",
	"lat": 52.9435997,
	"lon": -91.31279755,
	"iata": "ZRJ"
}, {
	"icao": "CZSJ",
	"size": 2,
	"name": "Sandy Lake Airport",
	"lat": 53.06420135,
	"lon": -93.3443985,
	"iata": "ZSJ"
}, {
	"icao": "CZTM",
	"size": 2,
	"name": "Shamattawa Airport",
	"lat": 55.86560059,
	"lon": -92.08139801,
	"iata": "ZTM"
}, {
	"icao": "CZWL",
	"size": 2,
	"name": "Wollaston Lake Airport",
	"lat": 58.10689926,
	"lon": -103.1719971,
	"iata": "ZWL"
}, {
	"icao": "DAAE",
	"size": 2,
	"name": "Soummam Airport",
	"lat": 36.7120018,
	"lon": 5.069920063,
	"iata": "BJA"
}, {
	"icao": "DAAG",
	"size": 1,
	"name": "Houari Boumediene Airport",
	"lat": 36.69100189,
	"lon": 3.215409994,
	"iata": "ALG"
}, {
	"icao": "DAAJ",
	"size": 2,
	"name": "Djanet Inedbirene Airport",
	"lat": 24.292801,
	"lon": 9.45244,
	"iata": "DJG"
}, {
	"icao": "DAAP",
	"size": 2,
	"name": "Illizi Takhamalt Airport",
	"lat": 26.7234993,
	"lon": 8.622650146,
	"iata": "VVZ"
}, {
	"icao": "DAAS",
	"size": 2,
	"name": "Ain Arnat Airport",
	"lat": 36.17810059,
	"lon": 5.32449007,
	"iata": "QSF"
}, {
	"icao": "DAAT",
	"size": 2,
	"name": "Aguenar – Hadj Bey Akhamok Airport",
	"lat": 22.81150055,
	"lon": 5.451079845,
	"iata": "TMR"
}, {
	"icao": "DAAV",
	"size": 2,
	"name": "Jijel Ferhat Abbas Airport",
	"lat": 36.79510117,
	"lon": 5.87361002,
	"iata": "GJL"
}, {
	"icao": "DABB",
	"size": 2,
	"name": "Rabah Bitat Airport",
	"lat": 36.822201,
	"lon": 7.809174,
	"iata": "AAE"
}, {
	"icao": "DABC",
	"size": 2,
	"name": "Mohamed Boudiaf International Airport",
	"lat": 36.27600098,
	"lon": 6.620389938,
	"iata": "CZL"
}, {
	"icao": "DABS",
	"size": 2,
	"name": "Cheikh Larbi Tébessi Airport",
	"lat": 35.43159866,
	"lon": 8.12071991,
	"iata": "TEE"
}, {
	"icao": "DABT",
	"size": 2,
	"name": "Batna Airport",
	"lat": 35.7521019,
	"lon": 6.308589935,
	"iata": "BLJ"
}, {
	"icao": "DAFH",
	"size": 2,
	"name": "Hassi R'Mel Airport",
	"lat": 32.93040085,
	"lon": 3.311539888,
	"iata": "HRM"
}, {
	"icao": "DAOF",
	"size": 2,
	"name": "Tindouf Airport",
	"lat": 27.7003994,
	"lon": -8.167099953,
	"iata": "TIN"
}, {
	"icao": "DAON",
	"size": 2,
	"name": "Zenata – Messali El Hadj Airport",
	"lat": 35.01670074,
	"lon": -1.450000048,
	"iata": "TLM"
}, {
	"icao": "DAOO",
	"size": 2,
	"name": "Es Senia Airport",
	"lat": 35.62390137,
	"lon": -0.621182978,
	"iata": "ORN"
}, {
	"icao": "DAOR",
	"size": 2,
	"name": "Béchar Boudghene Ben Ali Lotfi Airport",
	"lat": 31.64570045,
	"lon": -2.269860029,
	"iata": "CBH"
}, {
	"icao": "DAUA",
	"size": 2,
	"name": "Touat Cheikh Sidi Mohamed Belkebir Airport",
	"lat": 27.83760071,
	"lon": -0.186414003,
	"iata": "AZR"
}, {
	"icao": "DAUB",
	"size": 2,
	"name": "Biskra Airport",
	"lat": 34.79330063,
	"lon": 5.738230228,
	"iata": "BSK"
}, {
	"icao": "DAUE",
	"size": 2,
	"name": "El Golea Airport",
	"lat": 30.57130051,
	"lon": 2.859590054,
	"iata": "ELG"
}, {
	"icao": "DAUG",
	"size": 2,
	"name": "Noumérat - Moufdi Zakaria Airport",
	"lat": 32.38410187,
	"lon": 3.79411006,
	"iata": "GHA"
}, {
	"icao": "DAUH",
	"size": 2,
	"name": "Oued Irara Airport",
	"lat": 31.67300034,
	"lon": 6.140439987,
	"iata": "HME"
}, {
	"icao": "DAUI",
	"size": 2,
	"name": "In Salah Airport",
	"lat": 27.25099945,
	"lon": 2.512020111,
	"iata": "INZ"
}, {
	"icao": "DAUK",
	"size": 2,
	"name": "Touggourt Sidi Madhi Airport",
	"lat": 33.06779861,
	"lon": 6.088669777,
	"iata": "TGR"
}, {
	"icao": "DAUO",
	"size": 2,
	"name": "Guemar Airport",
	"lat": 33.51139832,
	"lon": 6.776790142,
	"iata": "ELU"
}, {
	"icao": "DAUT",
	"size": 2,
	"name": "Timimoun Airport",
	"lat": 29.2371006,
	"lon": 0.276033014,
	"iata": "TMX"
}, {
	"icao": "DAUU",
	"size": 2,
	"name": "Ain el Beida Airport",
	"lat": 31.91720009,
	"lon": 5.412779808,
	"iata": "OGX"
}, {
	"icao": "DAUZ",
	"size": 2,
	"name": "In Aménas Airport",
	"lat": 28.0515,
	"lon": 9.64291,
	"iata": "IAM"
}, {
	"icao": "DBBB",
	"size": 2,
	"name": "Cadjehoun Airport",
	"lat": 6.357230186,
	"lon": 2.384350061,
	"iata": "COO"
}, {
	"icao": "DFFD",
	"size": 1,
	"name": "Ouagadougou Airport",
	"lat": 12.3532,
	"lon": -1.51242,
	"iata": "OUA"
}, {
	"icao": "DFOO",
	"size": 2,
	"name": "Bobo Dioulasso Airport",
	"lat": 11.16009998,
	"lon": -4.33096981,
	"iata": "BOY"
}, {
	"icao": "DGAA",
	"size": 1,
	"name": "Kotoka International Airport",
	"lat": 5.6051898,
	"lon": -0.166786,
	"iata": "ACC"
}, {
	"icao": "DGLE",
	"size": 2,
	"name": "Tamale Airport",
	"lat": 9.557189941,
	"lon": -0.863214016,
	"iata": "TML"
}, {
	"icao": "DGSI",
	"size": 2,
	"name": "Kumasi Airport",
	"lat": 6.714560032,
	"lon": -1.590819955,
	"iata": "KMS"
}, {
	"icao": "DGSN",
	"size": 2,
	"name": "Sunyani Airport",
	"lat": 7.361830235,
	"lon": -2.328759909,
	"iata": "NYI"
}, {
	"icao": "DGTK",
	"size": 2,
	"name": "Takoradi Airport",
	"lat": 4.89605999,
	"lon": -1.774760008,
	"iata": "TKD"
}, {
	"icao": "DIAP",
	"size": 2,
	"name": "Port Bouet Airport",
	"lat": 5.261390209,
	"lon": -3.926290035,
	"iata": "ABJ"
}, {
	"icao": "DIBK",
	"size": 2,
	"name": "Bouaké Airport",
	"lat": 7.738800049,
	"lon": -5.07366991,
	"iata": "BYK"
}, {
	"icao": "DNAA",
	"size": 1,
	"name": "Nnamdi Azikiwe International Airport",
	"lat": 9.006790161,
	"lon": 7.263169765,
	"iata": "ABV"
}, {
	"icao": "DNAI",
	"size": 1,
	"name": "Akwa Ibom International Airport",
	"lat": 4.8725,
	"lon": 8.093,
	"iata": "QUO"
}, {
	"icao": "DNAK",
	"size": 2,
	"name": "Akure Airport",
	"lat": 7.246739864,
	"lon": 5.301010132,
	"iata": "AKR"
}, {
	"icao": "DNBC",
	"size": 2,
	"name": "Sir Abubakar Tafawa Balewa International Airport",
	"lat": 10.482833,
	"lon": 9.744,
	"iata": "BCU"
}, {
	"icao": "DNBE",
	"size": 2,
	"name": "Benin Airport",
	"lat": 6.316979885,
	"lon": 5.599500179,
	"iata": "BNI"
}, {
	"icao": "DNCA",
	"size": 2,
	"name": "Margaret Ekpo International Airport",
	"lat": 4.976019859,
	"lon": 8.347200394,
	"iata": "CBQ"
}, {
	"icao": "DNEN",
	"size": 2,
	"name": "Akanu Ibiam International Airport",
	"lat": 6.474269867,
	"lon": 7.56196022,
	"iata": "ENU"
}, {
	"icao": "DNIB",
	"size": 2,
	"name": "Ibadan Airport",
	"lat": 7.362460136,
	"lon": 3.978329897,
	"iata": "IBA"
}, {
	"icao": "DNIL",
	"size": 2,
	"name": "Ilorin International Airport",
	"lat": 8.440210342,
	"lon": 4.493919849,
	"iata": "ILR"
}, {
	"icao": "DNIM",
	"size": 2,
	"name": "Sam Mbakwe International Airport",
	"lat": 5.427060127,
	"lon": 7.206029892,
	"iata": "QOW"
}, {
	"icao": "DNJO",
	"size": 2,
	"name": "Yakubu Gowon Airport",
	"lat": 9.639829636,
	"lon": 8.869050026,
	"iata": "JOS"
}, {
	"icao": "DNKA",
	"size": 2,
	"name": "Kaduna Airport",
	"lat": 10.6960001,
	"lon": 7.320109844,
	"iata": "KAD"
}, {
	"icao": "DNKN",
	"size": 1,
	"name": "Mallam Aminu International Airport",
	"lat": 12.0476,
	"lon": 8.52462,
	"iata": "KAN"
}, {
	"icao": "DNMA",
	"size": 2,
	"name": "Maiduguri International Airport",
	"lat": 11.85529995,
	"lon": 13.08090019,
	"iata": "MIU"
}, {
	"icao": "DNMK",
	"size": 2,
	"name": "Makurdi Airport",
	"lat": 7.70388,
	"lon": 8.61394,
	"iata": "MDI"
}, {
	"icao": "DNMM",
	"size": 1,
	"name": "Murtala Muhammed International Airport",
	"lat": 6.577370167,
	"lon": 3.321160078,
	"iata": "LOS"
}, {
	"icao": "DNPO",
	"size": 2,
	"name": "Port Harcourt International Airport",
	"lat": 5.015490055,
	"lon": 6.949590206,
	"iata": "PHC"
}, {
	"icao": "DNSO",
	"size": 2,
	"name": "Sadiq Abubakar III International Airport",
	"lat": 12.91629982,
	"lon": 5.207190037,
	"iata": "SKO"
}, {
	"icao": "DNYO",
	"size": 2,
	"name": "Yola Airport",
	"lat": 9.25755024,
	"lon": 12.43039989,
	"iata": "YOL"
}, {
	"icao": "DRRN",
	"size": 1,
	"name": "Diori Hamani International Airport",
	"lat": 13.4815,
	"lon": 2.18361,
	"iata": "NIM"
}, {
	"icao": "DRZA",
	"size": 2,
	"name": "Mano Dayak International Airport",
	"lat": 16.9659996,
	"lon": 8.000109673,
	"iata": "AJY"
}, {
	"icao": "DRZR",
	"size": 2,
	"name": "Zinder Airport",
	"lat": 13.77900028,
	"lon": 8.98375988,
	"iata": "ZND"
}, {
	"icao": "DTKA",
	"size": 2,
	"name": "Tabarka 7 Novembre Airport",
	"lat": 36.97999954,
	"lon": 8.876939774,
	"iata": "TBJ"
}, {
	"icao": "DTMB",
	"size": 2,
	"name": "Monastir Habib Bourguiba International Airport",
	"lat": 35.7580986,
	"lon": 10.75469971,
	"iata": "MIR"
}, {
	"icao": "DTTA",
	"size": 1,
	"name": "Tunis Carthage International Airport",
	"lat": 36.85100174,
	"lon": 10.22719955,
	"iata": "TUN"
}, {
	"icao": "DTTF",
	"size": 2,
	"name": "Gafsa Ksar International Airport",
	"lat": 34.42200089,
	"lon": 8.822500229,
	"iata": "GAF"
}, {
	"icao": "DTTG",
	"size": 2,
	"name": "Gabès Matmata International Airport",
	"lat": 33.87689972,
	"lon": 10.10330009,
	"iata": "GAE"
}, {
	"icao": "DTTJ",
	"size": 2,
	"name": "Djerba Zarzis International Airport",
	"lat": 33.875,
	"lon": 10.7755003,
	"iata": "DJE"
}, {
	"icao": "DTTX",
	"size": 2,
	"name": "Sfax Thyna International Airport",
	"lat": 34.7179985,
	"lon": 10.69099998,
	"iata": "SFA"
}, {
	"icao": "DTTZ",
	"size": 2,
	"name": "Tozeur Nefta International Airport",
	"lat": 33.93970108,
	"lon": 8.110560417,
	"iata": "TOE"
}, {
	"icao": "DXXX",
	"size": 2,
	"name": "Lomé-Tokoin Airport",
	"lat": 6.165609837,
	"lon": 1.254510045,
	"iata": "LFW"
}, {
	"icao": "EBAW",
	"size": 2,
	"name": "Antwerp International Airport (Deurne)",
	"lat": 51.18939972,
	"lon": 4.460279942,
	"iata": "ANR"
}, {
	"icao": "EBBR",
	"size": 1,
	"name": "Brussels Airport",
	"lat": 50.90140152,
	"lon": 4.48443985,
	"iata": "BRU"
}, {
	"icao": "EBCI",
	"size": 1,
	"name": "Brussels South Charleroi Airport",
	"lat": 50.459202,
	"lon": 4.45382,
	"iata": "CRL"
}, {
	"icao": "EBLG",
	"size": 1,
	"name": "Liège Airport",
	"lat": 50.63740158,
	"lon": 5.443220139,
	"iata": "LGG"
}, {
	"icao": "EBOS",
	"size": 2,
	"name": "Ostend-Bruges International Airport",
	"lat": 51.19889832,
	"lon": 2.862220049,
	"iata": "OST"
}, {
	"icao": "EDAH",
	"size": 2,
	"name": "Heringsdorf Airport",
	"lat": 53.87870026,
	"lon": 14.15229988,
	"iata": "HDF"
}, {
	"icao": "EDDB",
	"size": 1,
	"name": "Berlin-Schönefeld Airport",
	"lat": 52.380001,
	"lon": 13.5225,
	"iata": "SXF"
}, {
	"icao": "EDDC",
	"size": 1,
	"name": "Dresden Airport",
	"lat": 51.13280106,
	"lon": 13.76720047,
	"iata": "DRS"
}, {
	"icao": "EDDE",
	"size": 2,
	"name": "Erfurt Airport",
	"lat": 50.97980118,
	"lon": 10.95810032,
	"iata": "ERF"
}, {
	"icao": "EDDF",
	"size": 1,
	"name": "Frankfurt am Main Airport",
	"lat": 50.033333,
	"lon": 8.570556,
	"iata": "FRA"
}, {
	"icao": "EDDG",
	"size": 1,
	"name": "Münster Osnabrück Airport",
	"lat": 52.13460159,
	"lon": 7.684830189,
	"iata": "FMO"
}, {
	"icao": "EDDH",
	"size": 1,
	"name": "Hamburg Airport",
	"lat": 53.63040161,
	"lon": 9.988229752,
	"iata": "HAM"
}, {
	"icao": "EDDK",
	"size": 1,
	"name": "Cologne Bonn Airport",
	"lat": 50.86589813,
	"lon": 7.142739773,
	"iata": "CGN"
}, {
	"icao": "EDDL",
	"size": 1,
	"name": "Düsseldorf Airport",
	"lat": 51.289501,
	"lon": 6.76678,
	"iata": "DUS"
}, {
	"icao": "EDDM",
	"size": 1,
	"name": "Munich Airport",
	"lat": 48.353802,
	"lon": 11.7861,
	"iata": "MUC"
}, {
	"icao": "EDDN",
	"size": 1,
	"name": "Nuremberg Airport",
	"lat": 49.498699,
	"lon": 11.078056,
	"iata": "NUE"
}, {
	"icao": "EDDP",
	"size": 1,
	"name": "Leipzig/Halle Airport",
	"lat": 51.423889,
	"lon": 12.236389,
	"iata": "LEJ"
}, {
	"icao": "EDDR",
	"size": 2,
	"name": "Saarbrücken Airport",
	"lat": 49.21459961,
	"lon": 7.109509945,
	"iata": "SCN"
}, {
	"icao": "EDDS",
	"size": 1,
	"name": "Stuttgart Airport",
	"lat": 48.68989944,
	"lon": 9.221960068,
	"iata": "STR"
}, {
	"icao": "EDDT",
	"size": 1,
	"name": "Berlin-Tegel Airport",
	"lat": 52.5597,
	"lon": 13.2877,
	"iata": "TXL"
}, {
	"icao": "EDDV",
	"size": 1,
	"name": "Hannover Airport",
	"lat": 52.46110153,
	"lon": 9.685079575,
	"iata": "HAJ"
}, {
	"icao": "EDDW",
	"size": 1,
	"name": "Bremen Airport",
	"lat": 53.04750061,
	"lon": 8.786669731,
	"iata": "BRE"
}, {
	"icao": "EDFH",
	"size": 2,
	"name": "Frankfurt-Hahn Airport",
	"lat": 49.9487,
	"lon": 7.26389,
	"iata": "HHN"
}, {
	"icao": "EDFM",
	"size": 2,
	"name": "Mannheim-City Airport",
	"lat": 49.473057,
	"lon": 8.514167,
	"iata": "MHG"
}, {
	"icao": "EDHK",
	"size": 2,
	"name": "Kiel-Holtenau Airport",
	"lat": 54.37944412,
	"lon": 10.14527798,
	"iata": "KEL"
}, {
	"icao": "EDHL",
	"size": 2,
	"name": "Lübeck Blankensee Airport",
	"lat": 53.80540085,
	"lon": 10.71920013,
	"iata": "LBC"
}, {
	"icao": "EDJA",
	"size": 2,
	"name": "Memmingen Allgau Airport",
	"lat": 47.98880005,
	"lon": 10.23950005,
	"iata": "FMM"
}, {
	"icao": "EDLP",
	"size": 2,
	"name": "Paderborn Lippstadt Airport",
	"lat": 51.61410141,
	"lon": 8.616319656,
	"iata": "PAD"
}, {
	"icao": "EDLV",
	"size": 2,
	"name": "Weeze Airport",
	"lat": 51.60240173,
	"lon": 6.142169952,
	"iata": "NRN"
}, {
	"icao": "EDLW",
	"size": 1,
	"name": "Dortmund Airport",
	"lat": 51.5182991,
	"lon": 7.612239838,
	"iata": "DTM"
}, {
	"icao": "EDNY",
	"size": 2,
	"name": "Friedrichshafen Airport",
	"lat": 47.67129898,
	"lon": 9.511489868,
	"iata": "FDH"
}, {
	"icao": "EDQM",
	"size": 2,
	"name": "Hof-Plauen Airport",
	"lat": 50.28861237,
	"lon": 11.85638905,
	"iata": "HOQ"
}, {
	"icao": "EDSB",
	"size": 1,
	"name": "Karlsruhe Baden-Baden Airport",
	"lat": 48.77939987,
	"lon": 8.080499649,
	"iata": "FKB"
}, {
	"icao": "EDVE",
	"size": 2,
	"name": "Braunschweig-Wolfsburg Airport",
	"lat": 52.319199,
	"lon": 10.5561,
	"iata": "BWE"
}, {
	"icao": "EDVK",
	"size": 2,
	"name": "Kassel-Calden Airport",
	"lat": 51.417273,
	"lon": 9.384967,
	"iata": "KSF"
}, {
	"icao": "EDXW",
	"size": 2,
	"name": "Westerland Sylt Airport",
	"lat": 54.91320038,
	"lon": 8.340470314,
	"iata": "GWT"
}, {
	"icao": "EEKA",
	"size": 2,
	"name": "Kärdla Airport",
	"lat": 58.99079895,
	"lon": 22.83069992,
	"iata": "KDL"
}, {
	"icao": "EEKE",
	"size": 2,
	"name": "Kuressaare Airport",
	"lat": 58.22990036,
	"lon": 22.5095005,
	"iata": "URE"
}, {
	"icao": "EEPU",
	"size": 2,
	"name": "Pärnu Airport",
	"lat": 58.41899872,
	"lon": 24.4727993,
	"iata": "EPU"
}, {
	"icao": "EETN",
	"size": 1,
	"name": "Lennart Meri Tallinn Airport",
	"lat": 59.41329956,
	"lon": 24.83279991,
	"iata": "TLL"
}, {
	"icao": "EETU",
	"size": 2,
	"name": "Tartu Airport",
	"lat": 58.30749893,
	"lon": 26.69039917,
	"iata": "TAY"
}, {
	"icao": "EFET",
	"size": 2,
	"name": "Enontekio Airport",
	"lat": 68.36260223,
	"lon": 23.42429924,
	"iata": "ENF"
}, {
	"icao": "EFHK",
	"size": 1,
	"name": "Helsinki Vantaa Airport",
	"lat": 60.31719971,
	"lon": 24.9633007,
	"iata": "HEL"
}, {
	"icao": "EFIV",
	"size": 2,
	"name": "Ivalo Airport",
	"lat": 68.6072998,
	"lon": 27.40530014,
	"iata": "IVL"
}, {
	"icao": "EFJO",
	"size": 2,
	"name": "Joensuu Airport",
	"lat": 62.66289902,
	"lon": 29.60750008,
	"iata": "JOE"
}, {
	"icao": "EFJY",
	"size": 2,
	"name": "Jyvaskyla Airport",
	"lat": 62.3995018,
	"lon": 25.67830086,
	"iata": "JYV"
}, {
	"icao": "EFKE",
	"size": 2,
	"name": "Kemi-Tornio Airport",
	"lat": 65.77870178,
	"lon": 24.58209991,
	"iata": "KEM"
}, {
	"icao": "EFKI",
	"size": 2,
	"name": "Kajaani Airport",
	"lat": 64.28549957,
	"lon": 27.69239998,
	"iata": "KAJ"
}, {
	"icao": "EFKK",
	"size": 2,
	"name": "Kokkola-Pietarsaari Airport",
	"lat": 63.72119904,
	"lon": 23.14310074,
	"iata": "KOK"
}, {
	"icao": "EFKS",
	"size": 2,
	"name": "Kuusamo Airport",
	"lat": 65.98760223,
	"lon": 29.23940086,
	"iata": "KAO"
}, {
	"icao": "EFKT",
	"size": 2,
	"name": "Kittilä Airport",
	"lat": 67.7009964,
	"lon": 24.84679985,
	"iata": "KTT"
}, {
	"icao": "EFKU",
	"size": 2,
	"name": "Kuopio Airport",
	"lat": 63.00709915,
	"lon": 27.79780006,
	"iata": "KUO"
}, {
	"icao": "EFMA",
	"size": 2,
	"name": "Mariehamn Airport",
	"lat": 60.12220001,
	"lon": 19.89819908,
	"iata": "MHQ"
}, {
	"icao": "EFOU",
	"size": 2,
	"name": "Oulu Airport",
	"lat": 64.93009949,
	"lon": 25.35460091,
	"iata": "OUL"
}, {
	"icao": "EFPO",
	"size": 2,
	"name": "Pori Airport",
	"lat": 61.46170044,
	"lon": 21.79999924,
	"iata": "POR"
}, {
	"icao": "EFRO",
	"size": 2,
	"name": "Rovaniemi Airport",
	"lat": 66.56479645,
	"lon": 25.83040047,
	"iata": "RVN"
}, {
	"icao": "EFSA",
	"size": 2,
	"name": "Savonlinna Airport",
	"lat": 61.94309998,
	"lon": 28.94510078,
	"iata": "SVL"
}, {
	"icao": "EFSI",
	"size": 2,
	"name": "Seinäjoki Airport",
	"lat": 62.692101,
	"lon": 22.8323,
	"iata": "SJY"
}, {
	"icao": "EFTP",
	"size": 2,
	"name": "Tampere-Pirkkala Airport",
	"lat": 61.41410065,
	"lon": 23.60440063,
	"iata": "TMP"
}, {
	"icao": "EFTU",
	"size": 2,
	"name": "Turku Airport",
	"lat": 60.51409912,
	"lon": 22.26280022,
	"iata": "TKU"
}, {
	"icao": "EFVA",
	"size": 2,
	"name": "Vaasa Airport",
	"lat": 63.05070114,
	"lon": 21.7621994,
	"iata": "VAA"
}, {
	"icao": "EFVR",
	"size": 2,
	"name": "Varkaus Airport",
	"lat": 62.17110062,
	"lon": 27.86860085,
	"iata": "VRK"
}, {
	"icao": "EGAA",
	"size": 1,
	"name": "Belfast International Airport",
	"lat": 54.65750122,
	"lon": -6.215829849,
	"iata": "BFS"
}, {
	"icao": "EGAC",
	"size": 1,
	"name": "George Best Belfast City Airport",
	"lat": 54.61809921,
	"lon": -5.872499943,
	"iata": "BHD"
}, {
	"icao": "EGAE",
	"size": 2,
	"name": "City of Derry Airport",
	"lat": 55.0428009,
	"lon": -7.161109924,
	"iata": "LDY"
}, {
	"icao": "EGBB",
	"size": 1,
	"name": "Birmingham International Airport",
	"lat": 52.45389938,
	"lon": -1.748029947,
	"iata": "BHX"
}, {
	"icao": "EGBN",
	"size": 2,
	"name": "Nottingham Airport",
	"lat": 52.91999817,
	"lon": -1.079169989,
	"iata": "NQT"
}, {
	"icao": "EGCC",
	"size": 1,
	"name": "Manchester Airport",
	"lat": 53.35369873,
	"lon": -2.274950027,
	"iata": "MAN"
}, {
	"icao": "EGCN",
	"size": 1,
	"name": "Robin Hood Doncaster Sheffield Airport",
	"lat": 53.48053781,
	"lon": -1.010656357,
	"iata": "DSA"
}, {
	"icao": "EGEC",
	"size": 2,
	"name": "Campbeltown Airport",
	"lat": 55.43719864,
	"lon": -5.686389923,
	"iata": "CAL"
}, {
	"icao": "EGED",
	"size": 2,
	"name": "Eday Airport",
	"lat": 59.19060135,
	"lon": -2.772219896,
	"iata": "EOI"
}, {
	"icao": "EGEF",
	"size": 2,
	"name": "Fair Isle Airport",
	"lat": 59.53580093,
	"lon": -1.628059983,
	"iata": "FIE"
}, {
	"icao": "EGFF",
	"size": 1,
	"name": "Cardiff International Airport",
	"lat": 51.39670181,
	"lon": -3.343329906,
	"iata": "CWL"
}, {
	"icao": "EGGD",
	"size": 1,
	"name": "Bristol Airport",
	"lat": 51.382702,
	"lon": -2.71909,
	"iata": "BRS"
}, {
	"icao": "EGGP",
	"size": 1,
	"name": "Liverpool John Lennon Airport",
	"lat": 53.33359909,
	"lon": -2.849720001,
	"iata": "LPL"
}, {
	"icao": "EGGW",
	"size": 1,
	"name": "London Luton Airport",
	"lat": 51.87469864,
	"lon": -0.368333012,
	"iata": "LTN"
}, {
	"icao": "EGHC",
	"size": 2,
	"name": "Land's End Airport",
	"lat": 50.102798,
	"lon": -5.67056,
	"iata": "LEQ"
}, {
	"icao": "EGHE",
	"size": 2,
	"name": "St. Mary's Airport",
	"lat": 49.91329956,
	"lon": -6.291669846,
	"iata": "ISC"
}, {
	"icao": "EGHH",
	"size": 1,
	"name": "Bournemouth Airport",
	"lat": 50.77999878,
	"lon": -1.842499971,
	"iata": "BOH"
}, {
	"icao": "EGHI",
	"size": 1,
	"name": "Southampton Airport",
	"lat": 50.95029831,
	"lon": -1.35679996,
	"iata": "SOU"
}, {
	"icao": "EGHQ",
	"size": 2,
	"name": "Newquay Cornwall Airport",
	"lat": 50.44060135,
	"lon": -4.995409966,
	"iata": "NQY"
}, {
	"icao": "EGJA",
	"size": 2,
	"name": "Alderney Airport",
	"lat": 49.706104,
	"lon": -2.21472,
	"iata": "ACI"
}, {
	"icao": "EGJB",
	"size": 2,
	"name": "Guernsey Airport",
	"lat": 49.43500137,
	"lon": -2.601969957,
	"iata": "GCI"
}, {
	"icao": "EGJJ",
	"size": 2,
	"name": "Jersey Airport",
	"lat": 49.207901,
	"lon": -2.195509911,
	"iata": "JER"
}, {
	"icao": "EGKK",
	"size": 1,
	"name": "London Gatwick Airport",
	"lat": 51.148102,
	"lon": -0.190278,
	"iata": "LGW"
}, {
	"icao": "EGLC",
	"size": 2,
	"name": "London City Airport",
	"lat": 51.505299,
	"lon": 0.055278,
	"iata": "LCY"
}, {
	"icao": "EGLL",
	"size": 1,
	"name": "London Heathrow Airport",
	"lat": 51.4706,
	"lon": -0.461941,
	"iata": "LHR"
}, {
	"icao": "EGMC",
	"size": 2,
	"name": "Southend Airport",
	"lat": 51.57139969,
	"lon": 0.695555985,
	"iata": "SEN"
}, {
	"icao": "EGMD",
	"size": 2,
	"name": "Lydd Airport",
	"lat": 50.95610046,
	"lon": 0.939167023,
	"iata": "LYX"
}, {
	"icao": "EGNH",
	"size": 2,
	"name": "Blackpool International Airport",
	"lat": 53.77170181,
	"lon": -3.028609991,
	"iata": "BLK"
}, {
	"icao": "EGNJ",
	"size": 2,
	"name": "Humberside Airport",
	"lat": 53.57440186,
	"lon": -0.350832999,
	"iata": "HUY"
}, {
	"icao": "EGNM",
	"size": 1,
	"name": "Leeds Bradford Airport",
	"lat": 53.86589813,
	"lon": -1.660570025,
	"iata": "LBA"
}, {
	"icao": "EGNR",
	"size": 2,
	"name": "Hawarden Airport",
	"lat": 53.17810059,
	"lon": -2.977780104,
	"iata": "CEG"
}, {
	"icao": "EGNS",
	"size": 2,
	"name": "Isle of Man Airport",
	"lat": 54.08330154,
	"lon": -4.623889923,
	"iata": "IOM"
}, {
	"icao": "EGNT",
	"size": 1,
	"name": "Newcastle Airport",
	"lat": 55.03749847,
	"lon": -1.691669941,
	"iata": "NCL"
}, {
	"icao": "EGNV",
	"size": 2,
	"name": "Durham Tees Valley Airport",
	"lat": 54.50920105,
	"lon": -1.429409981,
	"iata": "MME"
}, {
	"icao": "EGNX",
	"size": 1,
	"name": "East Midlands Airport",
	"lat": 52.83110046,
	"lon": -1.328060031,
	"iata": "EMA"
}, {
	"icao": "EGOV",
	"size": 2,
	"name": "Anglesey Airport",
	"lat": 53.24810028,
	"lon": -4.535339832,
	"iata": "VLY"
}, {
	"icao": "EGPA",
	"size": 2,
	"name": "Kirkwall Airport",
	"lat": 58.95780182,
	"lon": -2.904999971,
	"iata": "KOI"
}, {
	"icao": "EGPB",
	"size": 2,
	"name": "Sumburgh Airport",
	"lat": 59.87889862,
	"lon": -1.295560002,
	"iata": "LSI"
}, {
	"icao": "EGPC",
	"size": 2,
	"name": "Wick Airport",
	"lat": 58.45890045,
	"lon": -3.093060017,
	"iata": "WIC"
}, {
	"icao": "EGPD",
	"size": 1,
	"name": "Aberdeen Dyce Airport",
	"lat": 57.20190048,
	"lon": -2.197779894,
	"iata": "ABZ"
}, {
	"icao": "EGPE",
	"size": 2,
	"name": "Inverness Airport",
	"lat": 57.54249954,
	"lon": -4.047500134,
	"iata": "INV"
}, {
	"icao": "EGPF",
	"size": 1,
	"name": "Glasgow International Airport",
	"lat": 55.871899,
	"lon": -4.43306,
	"iata": "GLA"
}, {
	"icao": "EGPH",
	"size": 1,
	"name": "Edinburgh Airport",
	"lat": 55.95000076,
	"lon": -3.372499943,
	"iata": "EDI"
}, {
	"icao": "EGPI",
	"size": 2,
	"name": "Islay Airport",
	"lat": 55.68190002,
	"lon": -6.256669998,
	"iata": "ILY"
}, {
	"icao": "EGPK",
	"size": 2,
	"name": "Glasgow Prestwick Airport",
	"lat": 55.50939941,
	"lon": -4.586669922,
	"iata": "PIK"
}, {
	"icao": "EGPL",
	"size": 2,
	"name": "Benbecula Airport",
	"lat": 57.48109818,
	"lon": -7.362780094,
	"iata": "BEB"
}, {
	"icao": "EGPN",
	"size": 2,
	"name": "Dundee Airport",
	"lat": 56.45249939,
	"lon": -3.02583003,
	"iata": "DND"
}, {
	"icao": "EGPO",
	"size": 2,
	"name": "Stornoway Airport",
	"lat": 58.21559906,
	"lon": -6.331110001,
	"iata": "SYY"
}, {
	"icao": "EGPR",
	"size": 2,
	"name": "Barra Airport",
	"lat": 57.0228,
	"lon": -7.44306,
	"iata": "BRR"
}, {
	"icao": "EGPU",
	"size": 2,
	"name": "Tiree Airport",
	"lat": 56.49919891,
	"lon": -6.869170189,
	"iata": "TRE"
}, {
	"icao": "EGSH",
	"size": 1,
	"name": "Norwich International Airport",
	"lat": 52.67580032,
	"lon": 1.282780051,
	"iata": "NWI"
}, {
	"icao": "EGSS",
	"size": 1,
	"name": "London Stansted Airport",
	"lat": 51.88499832,
	"lon": 0.234999999,
	"iata": "STN"
}, {
	"icao": "EGTE",
	"size": 1,
	"name": "Exeter International Airport",
	"lat": 50.7344017,
	"lon": -3.413889885,
	"iata": "EXT"
}, {
	"icao": "EGVN",
	"size": 1,
	"name": "RAF Brize Norton",
	"lat": 51.75,
	"lon": -1.58362,
	"iata": "BZZ"
}, {
	"icao": "EGYP",
	"size": 2,
	"name": "Mount Pleasant Airport",
	"lat": -51.82279968,
	"lon": -58.44720078,
	"iata": "MPN"
}, {
	"icao": "EHAM",
	"size": 1,
	"name": "Amsterdam Airport Schiphol",
	"lat": 52.308601,
	"lon": 4.76389,
	"iata": "AMS"
}, {
	"icao": "EHBK",
	"size": 2,
	"name": "Maastricht Aachen Airport",
	"lat": 50.911701,
	"lon": 5.77014,
	"iata": "MST"
}, {
	"icao": "EHEH",
	"size": 1,
	"name": "Eindhoven Airport",
	"lat": 51.45009995,
	"lon": 5.374529839,
	"iata": "EIN"
}, {
	"icao": "EHGG",
	"size": 2,
	"name": "Eelde Airport",
	"lat": 53.11970139,
	"lon": 6.579440117,
	"iata": "GRQ"
}, {
	"icao": "EHRD",
	"size": 2,
	"name": "Rotterdam The Hague Airport",
	"lat": 51.956902,
	"lon": 4.43722,
	"iata": "RTM"
}, {
	"icao": "EICK",
	"size": 1,
	"name": "Cork Airport",
	"lat": 51.84130096,
	"lon": -8.491109848,
	"iata": "ORK"
}, {
	"icao": "EICM",
	"size": 2,
	"name": "Galway Airport",
	"lat": 53.30020142,
	"lon": -8.941590309,
	"iata": "GWY"
}, {
	"icao": "EIDL",
	"size": 2,
	"name": "Donegal Airport",
	"lat": 55.0442009,
	"lon": -8.340999603,
	"iata": "CFN"
}, {
	"icao": "EIDW",
	"size": 1,
	"name": "Dublin Airport",
	"lat": 53.421299,
	"lon": -6.27007,
	"iata": "DUB"
}, {
	"icao": "EIKN",
	"size": 2,
	"name": "Ireland West Knock Airport",
	"lat": 53.91030121,
	"lon": -8.818490028,
	"iata": "NOC"
}, {
	"icao": "EIKY",
	"size": 2,
	"name": "Kerry Airport",
	"lat": 52.18090057,
	"lon": -9.523779869,
	"iata": "KIR"
}, {
	"icao": "EINN",
	"size": 1,
	"name": "Shannon Airport",
	"lat": 52.702,
	"lon": -8.92482,
	"iata": "SNN"
}, {
	"icao": "EIWF",
	"size": 2,
	"name": "Waterford Airport",
	"lat": 52.18719864,
	"lon": -7.086959839,
	"iata": "WAT"
}, {
	"icao": "EKAH",
	"size": 2,
	"name": "Aarhus Airport",
	"lat": 56.29999924,
	"lon": 10.61900043,
	"iata": "AAR"
}, {
	"icao": "EKBI",
	"size": 1,
	"name": "Billund Airport",
	"lat": 55.74029922,
	"lon": 9.151780128,
	"iata": "BLL"
}, {
	"icao": "EKCH",
	"size": 1,
	"name": "Copenhagen Kastrup Airport",
	"lat": 55.61790085,
	"lon": 12.65600014,
	"iata": "CPH"
}, {
	"icao": "EKEB",
	"size": 2,
	"name": "Esbjerg Airport",
	"lat": 55.525902,
	"lon": 8.5534,
	"iata": "EBJ"
}, {
	"icao": "EKKA",
	"size": 2,
	"name": "Karup Airport",
	"lat": 56.29750061,
	"lon": 9.124629974,
	"iata": "KRP"
}, {
	"icao": "EKOD",
	"size": 2,
	"name": "Odense Airport",
	"lat": 55.47669983,
	"lon": 10.33090019,
	"iata": "ODE"
}, {
	"icao": "EKRN",
	"size": 2,
	"name": "Bornholm Airport",
	"lat": 55.06330109,
	"lon": 14.75959969,
	"iata": "RNN"
}, {
	"icao": "EKSB",
	"size": 2,
	"name": "Sønderborg Airport",
	"lat": 54.96440125,
	"lon": 9.791729927,
	"iata": "SGD"
}, {
	"icao": "EKSN",
	"size": 2,
	"name": "Sindal Airport",
	"lat": 57.503502,
	"lon": 10.2294,
	"iata": "CNL"
}, {
	"icao": "EKVG",
	"size": 2,
	"name": "Vagar Airport",
	"lat": 62.06359863,
	"lon": -7.277219772,
	"iata": "FAE"
}, {
	"icao": "EKYT",
	"size": 1,
	"name": "Aalborg Airport",
	"lat": 57.09275891,
	"lon": 9.849243164,
	"iata": "AAL"
}, {
	"icao": "ELLX",
	"size": 1,
	"name": "Luxembourg-Findel International Airport",
	"lat": 49.6233333,
	"lon": 6.2044444,
	"iata": "LUX"
}, {
	"icao": "ENAL",
	"size": 2,
	"name": "Ålesund Airport",
	"lat": 62.5625,
	"lon": 6.119699955,
	"iata": "AES"
}, {
	"icao": "ENAN",
	"size": 2,
	"name": "Andøya Airport",
	"lat": 69.29250336,
	"lon": 16.14419937,
	"iata": "ANX"
}, {
	"icao": "ENAT",
	"size": 2,
	"name": "Alta Airport",
	"lat": 69.97609711,
	"lon": 23.37170029,
	"iata": "ALF"
}, {
	"icao": "ENBN",
	"size": 2,
	"name": "Brønnøysund Airport",
	"lat": 65.46109772,
	"lon": 12.21749973,
	"iata": "BNN"
}, {
	"icao": "ENBO",
	"size": 1,
	"name": "Bodø Airport",
	"lat": 67.26920319,
	"lon": 14.36530018,
	"iata": "BOO"
}, {
	"icao": "ENBR",
	"size": 1,
	"name": "Bergen Airport Flesland",
	"lat": 60.29339981,
	"lon": 5.218140125,
	"iata": "BGO"
}, {
	"icao": "ENBS",
	"size": 2,
	"name": "Båtsfjord Airport",
	"lat": 70.60050201,
	"lon": 29.69140053,
	"iata": "BJF"
}, {
	"icao": "ENBV",
	"size": 2,
	"name": "Berlevåg Airport",
	"lat": 70.871399,
	"lon": 29.034201,
	"iata": "BVG"
}, {
	"icao": "ENCN",
	"size": 2,
	"name": "Kristiansand Airport",
	"lat": 58.204201,
	"lon": 8.08537,
	"iata": "KRS"
}, {
	"icao": "ENDU",
	"size": 2,
	"name": "Bardufoss Airport",
	"lat": 69.05580139,
	"lon": 18.54039955,
	"iata": "BDU"
}, {
	"icao": "ENEV",
	"size": 2,
	"name": "Harstad/Narvik Airport, Evenes",
	"lat": 68.49130249,
	"lon": 16.67810059,
	"iata": "EVE"
}, {
	"icao": "ENFG",
	"size": 2,
	"name": "Leirin Airport",
	"lat": 61.0155983,
	"lon": 9.288060188,
	"iata": "VDB"
}, {
	"icao": "ENFL",
	"size": 2,
	"name": "Florø Airport",
	"lat": 61.58359909,
	"lon": 5.024720192,
	"iata": "FRO"
}, {
	"icao": "ENGM",
	"size": 1,
	"name": "Oslo Gardermoen Airport",
	"lat": 60.19390106,
	"lon": 11.10039997,
	"iata": "OSL"
}, {
	"icao": "ENHD",
	"size": 2,
	"name": "Haugesund Airport",
	"lat": 59.34529877,
	"lon": 5.208360195,
	"iata": "HAU"
}, {
	"icao": "ENHF",
	"size": 2,
	"name": "Hammerfest Airport",
	"lat": 70.67970276,
	"lon": 23.66860008,
	"iata": "HFT"
}, {
	"icao": "ENHV",
	"size": 2,
	"name": "Valan Airport",
	"lat": 71.00969696,
	"lon": 25.98360062,
	"iata": "HVG"
}, {
	"icao": "ENKB",
	"size": 2,
	"name": "Kristiansund Airport (Kvernberget)",
	"lat": 63.11180115,
	"lon": 7.824520111,
	"iata": "KSU"
}, {
	"icao": "ENKR",
	"size": 2,
	"name": "Kirkenes Airport (Høybuktmoen)",
	"lat": 69.72579956,
	"lon": 29.8913002,
	"iata": "KKN"
}, {
	"icao": "ENLK",
	"size": 2,
	"name": "Leknes Airport",
	"lat": 68.15249634,
	"lon": 13.6093998,
	"iata": "LKN"
}, {
	"icao": "ENMH",
	"size": 2,
	"name": "Mehamn Airport",
	"lat": 71.02970123,
	"lon": 27.82670021,
	"iata": "MEH"
}, {
	"icao": "ENML",
	"size": 2,
	"name": "Molde Airport",
	"lat": 62.74470139,
	"lon": 7.262499809,
	"iata": "MOL"
}, {
	"icao": "ENMS",
	"size": 2,
	"name": "Mosjøen Airport (Kjærstad)",
	"lat": 65.78399658,
	"lon": 13.21490002,
	"iata": "MJF"
}, {
	"icao": "ENNA",
	"size": 2,
	"name": "Banak Airport",
	"lat": 70.06880188,
	"lon": 24.9734993,
	"iata": "LKL"
}, {
	"icao": "ENNK",
	"size": 2,
	"name": "Narvik Framnes Airport",
	"lat": 68.43689728,
	"lon": 17.38669968,
	"iata": "NVK"
}, {
	"icao": "ENNO",
	"size": 2,
	"name": "Notodden Airport",
	"lat": 59.565701,
	"lon": 9.21222,
	"iata": "NTB"
}, {
	"icao": "ENOL",
	"size": 2,
	"name": "Ørland Airport",
	"lat": 63.69889832,
	"lon": 9.604000092,
	"iata": "OLA"
}, {
	"icao": "ENOV",
	"size": 2,
	"name": "Ørsta-Volda Airport, Hovden",
	"lat": 62.18000031,
	"lon": 6.074100018,
	"iata": "HOV"
}, {
	"icao": "ENRA",
	"size": 2,
	"name": "Mo i Rana Airport, Røssvoll",
	"lat": 66.36389923,
	"lon": 14.30140018,
	"iata": "MQN"
}, {
	"icao": "ENRM",
	"size": 2,
	"name": "Rørvik Airport, Ryum",
	"lat": 64.83830261,
	"lon": 11.14610004,
	"iata": "RVK"
}, {
	"icao": "ENRO",
	"size": 2,
	"name": "Røros Airport",
	"lat": 62.57839966,
	"lon": 11.34230042,
	"iata": "RRS"
}, {
	"icao": "ENSB",
	"size": 2,
	"name": "Svalbard Airport, Longyear",
	"lat": 78.24610138,
	"lon": 15.46560001,
	"iata": "LYR"
}, {
	"icao": "ENSH",
	"size": 2,
	"name": "Svolvær Helle Airport",
	"lat": 68.24330139,
	"lon": 14.66919994,
	"iata": "SVJ"
}, {
	"icao": "ENSK",
	"size": 2,
	"name": "Stokmarknes Skagen Airport",
	"lat": 68.5788269,
	"lon": 15.03341675,
	"iata": "SKN"
}, {
	"icao": "ENSO",
	"size": 2,
	"name": "Stord Airport",
	"lat": 59.79190063,
	"lon": 5.340849876,
	"iata": "SRP"
}, {
	"icao": "ENSR",
	"size": 2,
	"name": "Sørkjosen Airport",
	"lat": 69.78679657,
	"lon": 20.95940018,
	"iata": "SOJ"
}, {
	"icao": "ENSS",
	"size": 2,
	"name": "Vardø Airport, Svartnes",
	"lat": 70.35540009,
	"lon": 31.04490089,
	"iata": "VAW"
}, {
	"icao": "ENST",
	"size": 2,
	"name": "Sandnessjøen Airport (Stokka)",
	"lat": 65.95680237,
	"lon": 12.46889973,
	"iata": "SSJ"
}, {
	"icao": "ENTC",
	"size": 1,
	"name": "Tromsø Airport",
	"lat": 69.6832962,
	"lon": 18.91889954,
	"iata": "TOS"
}, {
	"icao": "ENTO",
	"size": 2,
	"name": "Sandefjord Airport, Torp",
	"lat": 59.18669891,
	"lon": 10.25860024,
	"iata": "TRF"
}, {
	"icao": "ENVA",
	"size": 1,
	"name": "Trondheim Airport Værnes",
	"lat": 63.4578018,
	"lon": 10.9239998,
	"iata": "TRD"
}, {
	"icao": "ENVD",
	"size": 2,
	"name": "Vadsø Airport",
	"lat": 70.06529999,
	"lon": 29.84469986,
	"iata": "VDS"
}, {
	"icao": "ENZV",
	"size": 1,
	"name": "Stavanger Airport Sola",
	"lat": 58.87670135,
	"lon": 5.63778019,
	"iata": "SVG"
}, {
	"icao": "EPBY",
	"size": 2,
	"name": "Bydgoszcz Ignacy Jan Paderewski Airport",
	"lat": 53.09680176,
	"lon": 17.97769928,
	"iata": "BZG"
}, {
	"icao": "EPGD",
	"size": 1,
	"name": "Gdańsk Lech Wałęsa Airport",
	"lat": 54.37760162,
	"lon": 18.46619987,
	"iata": "GDN"
}, {
	"icao": "EPKK",
	"size": 1,
	"name": "Kraków John Paul II International Airport",
	"lat": 50.077702,
	"lon": 19.7848,
	"iata": "KRK"
}, {
	"icao": "EPKT",
	"size": 1,
	"name": "Katowice International Airport",
	"lat": 50.4743,
	"lon": 19.08,
	"iata": "KTW"
}, {
	"icao": "EPLL",
	"size": 2,
	"name": "Łódź Władysław Reymont Airport",
	"lat": 51.72190094,
	"lon": 19.3980999,
	"iata": "LCJ"
}, {
	"icao": "EPMO",
	"size": 1,
	"name": "Modlin Airport",
	"lat": 52.451099,
	"lon": 20.6518,
	"iata": "WMI"
}, {
	"icao": "EPPO",
	"size": 1,
	"name": "Poznań-Ławica Airport",
	"lat": 52.42100143,
	"lon": 16.82629967,
	"iata": "POZ"
}, {
	"icao": "EPRA",
	"size": 2,
	"name": "Radom Airport",
	"lat": 51.3891983,
	"lon": 21.21330071,
	"iata": "RDO"
}, {
	"icao": "EPRZ",
	"size": 2,
	"name": "Rzeszów-Jasionka Airport",
	"lat": 50.110001,
	"lon": 22.018999,
	"iata": "RZE"
}, {
	"icao": "EPSC",
	"size": 2,
	"name": "Szczecin-Goleniów \"Solidarność\" Airport",
	"lat": 53.58470154,
	"lon": 14.90219975,
	"iata": "SZZ"
}, {
	"icao": "EPSY",
	"size": 2,
	"name": "Olsztyn-Mazury Airport",
	"lat": 53.481899,
	"lon": 20.9377,
	"iata": "SZY"
}, {
	"icao": "EPWA",
	"size": 1,
	"name": "Warsaw Chopin Airport",
	"lat": 52.16569901,
	"lon": 20.96710014,
	"iata": "WAW"
}, {
	"icao": "EPWR",
	"size": 1,
	"name": "Copernicus Wrocław Airport",
	"lat": 51.10269928,
	"lon": 16.88579941,
	"iata": "WRO"
}, {
	"icao": "EPZG",
	"size": 2,
	"name": "Zielona Góra-Babimost Airport",
	"lat": 52.13850021,
	"lon": 15.7986002,
	"iata": "IEG"
}, {
	"icao": "ESDF",
	"size": 2,
	"name": "Ronneby Airport",
	"lat": 56.26670074,
	"lon": 15.26500034,
	"iata": "RNB"
}, {
	"icao": "ESGG",
	"size": 1,
	"name": "Gothenburg-Landvetter Airport",
	"lat": 57.66279984,
	"lon": 12.27980042,
	"iata": "GOT"
}, {
	"icao": "ESGJ",
	"size": 2,
	"name": "Jönköping Airport",
	"lat": 57.75759888,
	"lon": 14.06869984,
	"iata": "JKG"
}, {
	"icao": "ESGT",
	"size": 2,
	"name": "Trollhättan-Vänersborg Airport",
	"lat": 58.31809998,
	"lon": 12.34500027,
	"iata": "THN"
}, {
	"icao": "ESKM",
	"size": 2,
	"name": "Mora Airport",
	"lat": 60.957901,
	"lon": 14.5114,
	"iata": "MXX"
}, {
	"icao": "ESKN",
	"size": 2,
	"name": "Stockholm Skavsta Airport",
	"lat": 58.78860092,
	"lon": 16.91220093,
	"iata": "NYO"
}, {
	"icao": "ESMK",
	"size": 2,
	"name": "Kristianstad Airport",
	"lat": 55.92169952,
	"lon": 14.08549976,
	"iata": "KID"
}, {
	"icao": "ESMQ",
	"size": 2,
	"name": "Kalmar Airport",
	"lat": 56.6855011,
	"lon": 16.28759956,
	"iata": "KLR"
}, {
	"icao": "ESMS",
	"size": 1,
	"name": "Malmö Sturup Airport",
	"lat": 55.53630536,
	"lon": 13.37619781,
	"iata": "MMX"
}, {
	"icao": "ESMT",
	"size": 2,
	"name": "Halmstad Airport",
	"lat": 56.69110107,
	"lon": 12.82019997,
	"iata": "HAD"
}, {
	"icao": "ESMX",
	"size": 2,
	"name": "Växjö Kronoberg Airport",
	"lat": 56.92910004,
	"lon": 14.72799969,
	"iata": "VXO"
}, {
	"icao": "ESND",
	"size": 2,
	"name": "Sveg Airport",
	"lat": 62.04779816,
	"lon": 14.4229002,
	"iata": "EVG"
}, {
	"icao": "ESNG",
	"size": 2,
	"name": "Gällivare Airport",
	"lat": 67.13240051,
	"lon": 20.81459999,
	"iata": "GEV"
}, {
	"icao": "ESNK",
	"size": 2,
	"name": "Kramfors Sollefteå Airport",
	"lat": 63.04859924,
	"lon": 17.76889992,
	"iata": "KRF"
}, {
	"icao": "ESNL",
	"size": 2,
	"name": "Lycksele Airport",
	"lat": 64.5483017,
	"lon": 18.71619987,
	"iata": "LYC"
}, {
	"icao": "ESNN",
	"size": 2,
	"name": "Sundsvall-Härnösand Airport",
	"lat": 62.52809906,
	"lon": 17.44389915,
	"iata": "SDL"
}, {
	"icao": "ESNO",
	"size": 2,
	"name": "Örnsköldsvik Airport",
	"lat": 63.40829849,
	"lon": 18.98999977,
	"iata": "OER"
}, {
	"icao": "ESNQ",
	"size": 2,
	"name": "Kiruna Airport",
	"lat": 67.8219986,
	"lon": 20.33679962,
	"iata": "KRN"
}, {
	"icao": "ESNS",
	"size": 2,
	"name": "Skellefteå Airport",
	"lat": 64.62480164,
	"lon": 21.07690048,
	"iata": "SFT"
}, {
	"icao": "ESNU",
	"size": 2,
	"name": "Umeå Airport",
	"lat": 63.79180145,
	"lon": 20.28280067,
	"iata": "UME"
}, {
	"icao": "ESNV",
	"size": 2,
	"name": "Vilhelmina Airport",
	"lat": 64.57910156,
	"lon": 16.83359909,
	"iata": "VHM"
}, {
	"icao": "ESNX",
	"size": 2,
	"name": "Arvidsjaur Airport",
	"lat": 65.59030151,
	"lon": 19.28190041,
	"iata": "AJR"
}, {
	"icao": "ESNZ",
	"size": 2,
	"name": "Åre Östersund Airport",
	"lat": 63.19440079,
	"lon": 14.50030041,
	"iata": "OSD"
}, {
	"icao": "ESOE",
	"size": 2,
	"name": "Örebro Airport",
	"lat": 59.22370148,
	"lon": 15.03800011,
	"iata": "ORB"
}, {
	"icao": "ESOH",
	"size": 2,
	"name": "Hagfors Airport",
	"lat": 60.02009964,
	"lon": 13.57890034,
	"iata": "HFS"
}, {
	"icao": "ESOK",
	"size": 2,
	"name": "Karlstad Airport",
	"lat": 59.44469833,
	"lon": 13.33740044,
	"iata": "KSD"
}, {
	"icao": "ESOW",
	"size": 2,
	"name": "Stockholm Västerås Airport",
	"lat": 59.58940125,
	"lon": 16.63360023,
	"iata": "VST"
}, {
	"icao": "ESPA",
	"size": 1,
	"name": "Luleå Airport",
	"lat": 65.54380035,
	"lon": 22.12199974,
	"iata": "LLA"
}, {
	"icao": "ESSA",
	"size": 1,
	"name": "Stockholm-Arlanda Airport",
	"lat": 59.65190125,
	"lon": 17.91860008,
	"iata": "ARN"
}, {
	"icao": "ESSB",
	"size": 2,
	"name": "Stockholm-Bromma Airport",
	"lat": 59.35440063,
	"lon": 17.94169998,
	"iata": "BMA"
}, {
	"icao": "ESSD",
	"size": 2,
	"name": "Borlange Airport",
	"lat": 60.42200089,
	"lon": 15.51519966,
	"iata": "BLE"
}, {
	"icao": "ESSL",
	"size": 2,
	"name": "Linköping City Airport",
	"lat": 58.40620041,
	"lon": 15.68050003,
	"iata": "LPI"
}, {
	"icao": "ESSP",
	"size": 2,
	"name": "Norrköping Airport",
	"lat": 58.5862999,
	"lon": 16.25060081,
	"iata": "NRK"
}, {
	"icao": "ESST",
	"size": 2,
	"name": "Torsby Airport",
	"lat": 60.1576004,
	"lon": 12.99129963,
	"iata": "TYF"
}, {
	"icao": "ESSV",
	"size": 2,
	"name": "Visby Airport",
	"lat": 57.66279984,
	"lon": 18.34620094,
	"iata": "VBY"
}, {
	"icao": "ESTA",
	"size": 2,
	"name": "Ängelholm-Helsingborg Airport",
	"lat": 56.29610062,
	"lon": 12.84710026,
	"iata": "AGH"
}, {
	"icao": "ESUD",
	"size": 2,
	"name": "Storuman Airport",
	"lat": 64.96089935,
	"lon": 17.69659996,
	"iata": "SQO"
}, {
	"icao": "ESUT",
	"size": 2,
	"name": "Hemavan Airport",
	"lat": 65.806099,
	"lon": 15.0828,
	"iata": "HMV"
}, {
	"icao": "ETNL",
	"size": 2,
	"name": "Rostock-Laage Airport",
	"lat": 53.91820145,
	"lon": 12.27830029,
	"iata": "RLG"
}, {
	"icao": "EVLA",
	"size": 2,
	"name": "Liepāja International Airport",
	"lat": 56.51750183,
	"lon": 21.09690094,
	"iata": "LPX"
}, {
	"icao": "EVRA",
	"size": 1,
	"name": "Riga International Airport",
	"lat": 56.92359924,
	"lon": 23.97109985,
	"iata": "RIX"
}, {
	"icao": "EVVA",
	"size": 2,
	"name": "Ventspils International Airport",
	"lat": 57.35779953,
	"lon": 21.5442009,
	"iata": "VNT"
}, {
	"icao": "EYKA",
	"size": 2,
	"name": "Kaunas International Airport",
	"lat": 54.96390152,
	"lon": 24.08480072,
	"iata": "KUN"
}, {
	"icao": "EYPA",
	"size": 2,
	"name": "Palanga International Airport",
	"lat": 55.97320175,
	"lon": 21.09390068,
	"iata": "PLQ"
}, {
	"icao": "EYVI",
	"size": 1,
	"name": "Vilnius International Airport",
	"lat": 54.634102,
	"lon": 25.285801,
	"iata": "VNO"
}, {
	"icao": "FABL",
	"size": 2,
	"name": "Bram Fischer International Airport",
	"lat": -29.092699,
	"lon": 26.302401,
	"iata": "BFN"
}, {
	"icao": "FACT",
	"size": 1,
	"name": "Cape Town International Airport",
	"lat": -33.96480179,
	"lon": 18.60169983,
	"iata": "CPT"
}, {
	"icao": "FAEL",
	"size": 2,
	"name": "Ben Schoeman Airport",
	"lat": -33.03559875,
	"lon": 27.82589912,
	"iata": "ELS"
}, {
	"icao": "FAGG",
	"size": 1,
	"name": "George Airport",
	"lat": -34.0056,
	"lon": 22.378902,
	"iata": "GRJ"
}, {
	"icao": "FAGM",
	"size": 2,
	"name": "Rand Airport",
	"lat": -26.24250031,
	"lon": 28.15119934,
	"iata": "QRA"
}, {
	"icao": "FAKM",
	"size": 2,
	"name": "Kimberley Airport",
	"lat": -28.80279922,
	"lon": 24.76519966,
	"iata": "KIM"
}, {
	"icao": "FAKN",
	"size": 2,
	"name": "Kruger Mpumalanga International Airport",
	"lat": -25.38319969,
	"lon": 31.10560036,
	"iata": "MQP"
}, {
	"icao": "FALA",
	"size": 2,
	"name": "Lanseria Airport",
	"lat": -25.93849945,
	"lon": 27.92609978,
	"iata": "HLA"
}, {
	"icao": "FALE",
	"size": 1,
	"name": "King Shaka International Airport",
	"lat": -29.61444444,
	"lon": 31.11972222,
	"iata": "DUR"
}, {
	"icao": "FAMD",
	"size": 2,
	"name": "Malamala Airport",
	"lat": -24.81809998,
	"lon": 31.54459953,
	"iata": "AAM"
}, {
	"icao": "FAMG",
	"size": 2,
	"name": "Margate Airport",
	"lat": -30.85740089,
	"lon": 30.34300041,
	"iata": "MGH"
}, {
	"icao": "FAMM",
	"size": 2,
	"name": "Mmabatho International Airport",
	"lat": -25.79840088,
	"lon": 25.54800034,
	"iata": "MBD"
}, {
	"icao": "FAOR",
	"size": 1,
	"name": "OR Tambo International Airport",
	"lat": -26.1392,
	"lon": 28.246,
	"iata": "JNB"
}, {
	"icao": "FAPE",
	"size": 2,
	"name": "Port Elizabeth Airport",
	"lat": -33.98490143,
	"lon": 25.61730003,
	"iata": "PLZ"
}, {
	"icao": "FAPH",
	"size": 2,
	"name": "Hendrik Van Eck Airport",
	"lat": -23.93720055,
	"lon": 31.15539932,
	"iata": "PHW"
}, {
	"icao": "FAPI",
	"size": 2,
	"name": "Pietersburg Municipal Airport",
	"lat": -23.92609978,
	"lon": 29.4843998,
	"iata": ""
}, {
	"icao": "FAPM",
	"size": 2,
	"name": "Pietermaritzburg Airport",
	"lat": -29.64900017,
	"lon": 30.39870071,
	"iata": "PZB"
}, {
	"icao": "FAPP",
	"size": 2,
	"name": "Polokwane International Airport",
	"lat": -23.845269,
	"lon": 29.458615,
	"iata": "PTG"
}, {
	"icao": "FARB",
	"size": 2,
	"name": "Richards Bay Airport",
	"lat": -28.74099922,
	"lon": 32.09209824,
	"iata": "RCB"
}, {
	"icao": "FAUP",
	"size": 2,
	"name": "Pierre Van Ryneveld Airport",
	"lat": -28.39909935,
	"lon": 21.2602005,
	"iata": "UTN"
}, {
	"icao": "FAUT",
	"size": 2,
	"name": "K. D. Matanzima Airport",
	"lat": -31.54636318,
	"lon": 28.6733551,
	"iata": "UTT"
}, {
	"icao": "FAWB",
	"size": 2,
	"name": "Wonderboom Airport",
	"lat": -25.6539,
	"lon": 28.224199,
	"iata": "PRY"
}, {
	"icao": "FBFT",
	"size": 2,
	"name": "Francistown Airport",
	"lat": -21.1595993,
	"lon": 27.47450066,
	"iata": "FRW"
}, {
	"icao": "FBJW",
	"size": 2,
	"name": "Jwaneng Airport",
	"lat": -24.60230064,
	"lon": 24.69099998,
	"iata": "JWA"
}, {
	"icao": "FBKE",
	"size": 2,
	"name": "Kasane Airport",
	"lat": -17.83289909,
	"lon": 25.16239929,
	"iata": "BBK"
}, {
	"icao": "FBMN",
	"size": 2,
	"name": "Maun Airport",
	"lat": -19.97260094,
	"lon": 23.43110085,
	"iata": "MUB"
}, {
	"icao": "FBSK",
	"size": 1,
	"name": "Sir Seretse Khama International Airport",
	"lat": -24.555201,
	"lon": 25.9182,
	"iata": "GBE"
}, {
	"icao": "FBSP",
	"size": 2,
	"name": "Selebi Phikwe Airport",
	"lat": -22.0583,
	"lon": 27.8288,
	"iata": "PKW"
}, {
	"icao": "FCBB",
	"size": 2,
	"name": "Maya-Maya Airport",
	"lat": -4.251699924,
	"lon": 15.25300026,
	"iata": "BZV"
}, {
	"icao": "FCPL",
	"size": 2,
	"name": "Ngot Nzoungou Airport",
	"lat": -4.20635,
	"lon": 12.6599,
	"iata": "DIS"
}, {
	"icao": "FCPP",
	"size": 2,
	"name": "Pointe Noire Airport",
	"lat": -4.816030025,
	"lon": 11.88659954,
	"iata": "PNR"
}, {
	"icao": "FDSK",
	"size": 1,
	"name": "King Mswati III International Airport",
	"lat": -26.358611,
	"lon": 31.716944,
	"iata": "SHO"
}, {
	"icao": "FEFF",
	"size": 2,
	"name": "Bangui M'Poko International Airport",
	"lat": 4.398479939,
	"lon": 18.51880074,
	"iata": "BGF"
}, {
	"icao": "FGBT",
	"size": 2,
	"name": "Bata Airport",
	"lat": 1.905470014,
	"lon": 9.805680275,
	"iata": "BSG"
}, {
	"icao": "FGSL",
	"size": 2,
	"name": "Malabo Airport",
	"lat": 3.755270004,
	"lon": 8.708720207,
	"iata": "SSG"
}, {
	"icao": "FIMP",
	"size": 1,
	"name": "Sir Seewoosagur Ramgoolam International Airport",
	"lat": -20.430201,
	"lon": 57.683601,
	"iata": "MRU"
}, {
	"icao": "FIMR",
	"size": 2,
	"name": "Sir Charles Gaetan Duval Airport",
	"lat": -19.7577,
	"lon": 63.361,
	"iata": "RRG"
}, {
	"icao": "FKKD",
	"size": 2,
	"name": "Douala International Airport",
	"lat": 4.006080151,
	"lon": 9.719479561,
	"iata": "DLA"
}, {
	"icao": "FKKL",
	"size": 2,
	"name": "Salak Airport",
	"lat": 10.4513998,
	"lon": 14.25739956,
	"iata": "MVR"
}, {
	"icao": "FKKN",
	"size": 2,
	"name": "N'Gaoundéré Airport",
	"lat": 7.357009888,
	"lon": 13.55920029,
	"iata": "NGE"
}, {
	"icao": "FKKR",
	"size": 2,
	"name": "Garoua International Airport",
	"lat": 9.335889816,
	"lon": 13.37010002,
	"iata": "GOU"
}, {
	"icao": "FKKY",
	"size": 2,
	"name": "Yaoundé Airport",
	"lat": 3.83604002,
	"lon": 11.52350044,
	"iata": "YAO"
}, {
	"icao": "FKYS",
	"size": 2,
	"name": "Yaoundé Nsimalen International Airport",
	"lat": 3.722559929,
	"lon": 11.5532999,
	"iata": "NSI"
}, {
	"icao": "FLLI",
	"size": 2,
	"name": "Harry Mwanga Nkumbula International Airport",
	"lat": -17.8218,
	"lon": 25.822701,
	"iata": "LVI"
}, {
	"icao": "FLLS",
	"size": 1,
	"name": "Kenneth Kaunda International Airport",
	"lat": -15.3308,
	"lon": 28.4526,
	"iata": "LUN"
}, {
	"icao": "FLMF",
	"size": 2,
	"name": "Mfuwe Airport",
	"lat": -13.25889969,
	"lon": 31.93659973,
	"iata": "MFU"
}, {
	"icao": "FLND",
	"size": 2,
	"name": "Simon Mwansa Kapwepwe International Airport",
	"lat": -12.99810028,
	"lon": 28.66489983,
	"iata": "NLA"
}, {
	"icao": "FMCH",
	"size": 2,
	"name": "Prince Said Ibrahim International Airport",
	"lat": -11.5337,
	"lon": 43.2719,
	"iata": "HAH"
}, {
	"icao": "FMCI",
	"size": 2,
	"name": "Mohéli Bandar Es Eslam Airport",
	"lat": -12.29810047,
	"lon": 43.76639938,
	"iata": "NWA"
}, {
	"icao": "FMCV",
	"size": 2,
	"name": "Ouani Airport",
	"lat": -12.13169956,
	"lon": 44.43030167,
	"iata": "AJN"
}, {
	"icao": "FMCZ",
	"size": 2,
	"name": "Dzaoudzi Pamandzi International Airport",
	"lat": -12.8046999,
	"lon": 45.28110123,
	"iata": "DZA"
}, {
	"icao": "FMEE",
	"size": 2,
	"name": "Roland Garros Airport",
	"lat": -20.88710022,
	"lon": 55.51029968,
	"iata": "RUN"
}, {
	"icao": "FMEP",
	"size": 2,
	"name": "Pierrefonds Airport",
	"lat": -21.32089996,
	"lon": 55.42499924,
	"iata": "ZSE"
}, {
	"icao": "FMMI",
	"size": 1,
	"name": "Ivato Airport",
	"lat": -18.7969,
	"lon": 47.478802,
	"iata": "TNR"
}, {
	"icao": "FMMN",
	"size": 2,
	"name": "Miandrivazo Airport",
	"lat": -19.56279945,
	"lon": 45.45080185,
	"iata": "ZVA"
}, {
	"icao": "FMMS",
	"size": 2,
	"name": "Sainte Marie Airport",
	"lat": -17.09390068,
	"lon": 49.81579971,
	"iata": "SMS"
}, {
	"icao": "FMMT",
	"size": 2,
	"name": "Toamasina Airport",
	"lat": -18.10950089,
	"lon": 49.39250183,
	"iata": "TMM"
}, {
	"icao": "FMMV",
	"size": 2,
	"name": "Morondava Airport",
	"lat": -20.28470039,
	"lon": 44.31760025,
	"iata": "MOQ"
}, {
	"icao": "FMNA",
	"size": 2,
	"name": "Arrachart Airport",
	"lat": -12.34939957,
	"lon": 49.29169846,
	"iata": "DIE"
}, {
	"icao": "FMNC",
	"size": 2,
	"name": "Mananara Nord Airport",
	"lat": -16.16390038,
	"lon": 49.7737999,
	"iata": "WMR"
}, {
	"icao": "FMNH",
	"size": 2,
	"name": "Antsirabato Airport",
	"lat": -14.99940014,
	"lon": 50.32020187,
	"iata": "ANM"
}, {
	"icao": "FMNL",
	"size": 2,
	"name": "Analalava Airport",
	"lat": -14.62969971,
	"lon": 47.76380157,
	"iata": "HVA"
}, {
	"icao": "FMNM",
	"size": 2,
	"name": "Amborovy Airport",
	"lat": -15.66684174,
	"lon": 46.35123253,
	"iata": "MJN"
}, {
	"icao": "FMNN",
	"size": 2,
	"name": "Fascene Airport",
	"lat": -13.31210041,
	"lon": 48.31480026,
	"iata": "NOS"
}, {
	"icao": "FMNQ",
	"size": 2,
	"name": "Besalampy Airport",
	"lat": -16.7445303,
	"lon": 44.48248386,
	"iata": "BPY"
}, {
	"icao": "FMNR",
	"size": 2,
	"name": "Maroantsetra Airport",
	"lat": -15.43669987,
	"lon": 49.68830109,
	"iata": "WMN"
}, {
	"icao": "FMNS",
	"size": 2,
	"name": "Sambava Airport",
	"lat": -14.27859974,
	"lon": 50.17470169,
	"iata": "SVB"
}, {
	"icao": "FMNV",
	"size": 2,
	"name": "Vohimarina Airport",
	"lat": -13.37580013,
	"lon": 50.00279999,
	"iata": "VOH"
}, {
	"icao": "FMNW",
	"size": 2,
	"name": "Ambalabe Airport",
	"lat": -14.8987999,
	"lon": 47.9939003,
	"iata": "WAI"
}, {
	"icao": "FMSD",
	"size": 2,
	"name": "Tôlanaro Airport",
	"lat": -25.03809929,
	"lon": 46.95610046,
	"iata": "FTU"
}, {
	"icao": "FMSF",
	"size": 2,
	"name": "Fianarantsoa Airport",
	"lat": -21.4416008,
	"lon": 47.11169815,
	"iata": "WFI"
}, {
	"icao": "FMSK",
	"size": 2,
	"name": "Manakara Airport",
	"lat": -22.11969948,
	"lon": 48.02170181,
	"iata": "WVK"
}, {
	"icao": "FMSM",
	"size": 2,
	"name": "Mananjary Airport",
	"lat": -21.20179939,
	"lon": 48.35829926,
	"iata": "MNJ"
}, {
	"icao": "FMSR",
	"size": 2,
	"name": "Morombe Airport",
	"lat": -21.75390053,
	"lon": 43.37549973,
	"iata": "MXM"
}, {
	"icao": "FMST",
	"size": 2,
	"name": "Toliara Airport",
	"lat": -23.38339996,
	"lon": 43.72850037,
	"iata": "TLE"
}, {
	"icao": "FNBC",
	"size": 2,
	"name": "Mbanza Congo Airport",
	"lat": -6.269899845,
	"lon": 14.24699974,
	"iata": "SSY"
}, {
	"icao": "FNCA",
	"size": 2,
	"name": "Cabinda Airport",
	"lat": -5.596990108,
	"lon": 12.18840027,
	"iata": "CAB"
}, {
	"icao": "FNCT",
	"size": 2,
	"name": "Catumbela Airport",
	"lat": -12.4792,
	"lon": 13.4869,
	"iata": "CBT"
}, {
	"icao": "FNDU",
	"size": 2,
	"name": "Dundo Airport",
	"lat": -7.400889874,
	"lon": 20.81850052,
	"iata": "DUE"
}, {
	"icao": "FNGI",
	"size": 2,
	"name": "Ngjiva Pereira Airport",
	"lat": -17.0435009,
	"lon": 15.68379974,
	"iata": "VPE"
}, {
	"icao": "FNHU",
	"size": 2,
	"name": "Nova Lisboa Airport",
	"lat": -12.80889988,
	"lon": 15.76049995,
	"iata": "NOV"
}, {
	"icao": "FNLU",
	"size": 1,
	"name": "Quatro de Fevereiro Airport",
	"lat": -8.85837,
	"lon": 13.2312,
	"iata": "LAD"
}, {
	"icao": "FNMA",
	"size": 2,
	"name": "Malanje Airport",
	"lat": -9.525090218,
	"lon": 16.31240082,
	"iata": "MEG"
}, {
	"icao": "FNME",
	"size": 2,
	"name": "Menongue Airport",
	"lat": -14.6576004,
	"lon": 17.71980095,
	"iata": "SPP"
}, {
	"icao": "FNMO",
	"size": 2,
	"name": "Namibe Airport",
	"lat": -15.26119995,
	"lon": 12.14680004,
	"iata": "MSZ"
}, {
	"icao": "FNNG",
	"size": 2,
	"name": "Negage Airport",
	"lat": -7.754509926,
	"lon": 15.2876997,
	"iata": "GXG"
}, {
	"icao": "FNSO",
	"size": 2,
	"name": "Soyo Airport",
	"lat": -6.141089916,
	"lon": 12.37180042,
	"iata": "SZA"
}, {
	"icao": "FNUB",
	"size": 2,
	"name": "Lubango Airport",
	"lat": -14.92469978,
	"lon": 13.57499981,
	"iata": "SDD"
}, {
	"icao": "FOGK",
	"size": 2,
	"name": "Koulamoutou Mabimbi Airport",
	"lat": -1.184610009,
	"lon": 12.44130039,
	"iata": "KOU"
}, {
	"icao": "FOGM",
	"size": 2,
	"name": "Mouilla Ville Airport",
	"lat": -1.84513998,
	"lon": 11.05669975,
	"iata": "MJL"
}, {
	"icao": "FOGO",
	"size": 2,
	"name": "Oyem Airport",
	"lat": 1.543110013,
	"lon": 11.58139992,
	"iata": "OYE"
}, {
	"icao": "FOOG",
	"size": 2,
	"name": "Port Gentil Airport",
	"lat": -0.711739004,
	"lon": 8.754380226,
	"iata": "POG"
}, {
	"icao": "FOOK",
	"size": 2,
	"name": "Makokou Airport",
	"lat": 0.579210997,
	"lon": 12.89089966,
	"iata": "MKU"
}, {
	"icao": "FOOL",
	"size": 2,
	"name": "Libreville Leon M'ba International Airport",
	"lat": 0.458600014,
	"lon": 9.412280083,
	"iata": "LBV"
}, {
	"icao": "FOON",
	"size": 2,
	"name": "M'Vengue El Hadj Omar Bongo Ondimba International Airport",
	"lat": -1.656159997,
	"lon": 13.43799973,
	"iata": "MVB"
}, {
	"icao": "FPPR",
	"size": 2,
	"name": "Principe Airport",
	"lat": 1.662940025,
	"lon": 7.411739826,
	"iata": "PCP"
}, {
	"icao": "FPST",
	"size": 2,
	"name": "São Tomé International Airport",
	"lat": 0.37817499,
	"lon": 6.712150097,
	"iata": "TMS"
}, {
	"icao": "FQBR",
	"size": 2,
	"name": "Beira Airport",
	"lat": -19.79640007,
	"lon": 34.9076004,
	"iata": "BEW"
}, {
	"icao": "FQCH",
	"size": 2,
	"name": "Chimoio Airport",
	"lat": -19.15130043,
	"lon": 33.42900085,
	"iata": "VPY"
}, {
	"icao": "FQIN",
	"size": 2,
	"name": "Inhambane Airport",
	"lat": -23.87639999,
	"lon": 35.40850067,
	"iata": "INH"
}, {
	"icao": "FQLC",
	"size": 2,
	"name": "Lichinga Airport",
	"lat": -13.274,
	"lon": 35.2663,
	"iata": "VXC"
}, {
	"icao": "FQMA",
	"size": 1,
	"name": "Maputo Airport",
	"lat": -25.920799,
	"lon": 32.572601,
	"iata": "MPM"
}, {
	"icao": "FQNP",
	"size": 2,
	"name": "Nampula Airport",
	"lat": -15.10560036,
	"lon": 39.28179932,
	"iata": "APL"
}, {
	"icao": "FQPB",
	"size": 2,
	"name": "Pemba Airport",
	"lat": -12.99176216,
	"lon": 40.52401352,
	"iata": "POL"
}, {
	"icao": "FQQL",
	"size": 2,
	"name": "Quelimane Airport",
	"lat": -17.85549927,
	"lon": 36.86909866,
	"iata": "UEL"
}, {
	"icao": "FQTT",
	"size": 2,
	"name": "Chingozi Airport",
	"lat": -16.10479927,
	"lon": 33.64020157,
	"iata": "TET"
}, {
	"icao": "FQVL",
	"size": 2,
	"name": "Vilankulo Airport",
	"lat": -22.01840019,
	"lon": 35.31330109,
	"iata": "VNX"
}, {
	"icao": "FSIA",
	"size": 1,
	"name": "Seychelles International Airport",
	"lat": -4.67434,
	"lon": 55.521801,
	"iata": "SEZ"
}, {
	"icao": "FSPP",
	"size": 2,
	"name": "Praslin Airport",
	"lat": -4.319290161,
	"lon": 55.69139862,
	"iata": "PRI"
}, {
	"icao": "FTTC",
	"size": 2,
	"name": "Abeche Airport",
	"lat": 13.84700012,
	"lon": 20.84429932,
	"iata": "AEH"
}, {
	"icao": "FTTD",
	"size": 2,
	"name": "Moundou Airport",
	"lat": 8.624409676,
	"lon": 16.07139969,
	"iata": "MQQ"
}, {
	"icao": "FTTJ",
	"size": 1,
	"name": "N'Djamena International Airport",
	"lat": 12.1337,
	"lon": 15.034,
	"iata": "NDJ"
}, {
	"icao": "FVBU",
	"size": 2,
	"name": "Joshua Mqabuko Nkomo International Airport",
	"lat": -20.017401,
	"lon": 28.617901,
	"iata": "BUQ"
}, {
	"icao": "FVFA",
	"size": 2,
	"name": "Victoria Falls International Airport",
	"lat": -18.09589958,
	"lon": 25.8390007,
	"iata": "VFA"
}, {
	"icao": "FVHA",
	"size": 1,
	"name": "Robert Gabriel Mugabe International Airport",
	"lat": -17.931801,
	"lon": 31.0928,
	"iata": "HRE"
}, {
	"icao": "FWCL",
	"size": 2,
	"name": "Chileka International Airport",
	"lat": -15.67910004,
	"lon": 34.97399902,
	"iata": "BLZ"
}, {
	"icao": "FWKI",
	"size": 2,
	"name": "Lilongwe International Airport",
	"lat": -13.7894001,
	"lon": 33.78099823,
	"iata": "LLW"
}, {
	"icao": "FWUU",
	"size": 2,
	"name": "Mzuzu Airport",
	"lat": -11.44470024,
	"lon": 34.01179886,
	"iata": "ZZU"
}, {
	"icao": "FXMM",
	"size": 2,
	"name": "Moshoeshoe I International Airport",
	"lat": -29.46229935,
	"lon": 27.55249977,
	"iata": "MSU"
}, {
	"icao": "FYLZ",
	"size": 2,
	"name": "Luderitz Airport",
	"lat": -26.68740082,
	"lon": 15.24289989,
	"iata": "LUD"
}, {
	"icao": "FYOA",
	"size": 2,
	"name": "Ondangwa Airport",
	"lat": -17.878201,
	"lon": 15.9526,
	"iata": "OND"
}, {
	"icao": "FYOG",
	"size": 2,
	"name": "Oranjemund Airport",
	"lat": -28.5847,
	"lon": 16.446699,
	"iata": "OMD"
}, {
	"icao": "FYRU",
	"size": 2,
	"name": "Rundu Airport",
	"lat": -17.9564991,
	"lon": 19.71940041,
	"iata": "NDU"
}, {
	"icao": "FYWB",
	"size": 2,
	"name": "Walvis Bay Airport",
	"lat": -22.9799,
	"lon": 14.6453,
	"iata": "WVB"
}, {
	"icao": "FYWE",
	"size": 2,
	"name": "Eros Airport",
	"lat": -22.61219978,
	"lon": 17.08040047,
	"iata": "ERS"
}, {
	"icao": "FYWH",
	"size": 1,
	"name": "Hosea Kutako International Airport",
	"lat": -22.4799,
	"lon": 17.4709,
	"iata": "WDH"
}, {
	"icao": "FZAA",
	"size": 1,
	"name": "Ndjili International Airport",
	"lat": -4.38575,
	"lon": 15.4446,
	"iata": "FIH"
}, {
	"icao": "FZBO",
	"size": 2,
	"name": "Bandundu Airport",
	"lat": -3.311320066,
	"lon": 17.38170052,
	"iata": "FDU"
}, {
	"icao": "FZCA",
	"size": 2,
	"name": "Kikwit Airport",
	"lat": -5.035769939,
	"lon": 18.78560066,
	"iata": "KKW"
}, {
	"icao": "FZEA",
	"size": 2,
	"name": "Mbandaka Airport",
	"lat": 0.022600001,
	"lon": 18.2887001,
	"iata": "MDK"
}, {
	"icao": "FZFD",
	"size": 2,
	"name": "Gbadolite Airport",
	"lat": 4.253210068,
	"lon": 20.97529984,
	"iata": "BDT"
}, {
	"icao": "FZFK",
	"size": 2,
	"name": "Gemena Airport",
	"lat": 3.235369921,
	"lon": 19.77129936,
	"iata": "GMA"
}, {
	"icao": "FZIC",
	"size": 2,
	"name": "Bangoka International Airport",
	"lat": 0.481638998,
	"lon": 25.33799934,
	"iata": "FKI"
}, {
	"icao": "FZJH",
	"size": 2,
	"name": "Matari Airport",
	"lat": 2.827610016,
	"lon": 27.5883007,
	"iata": "IRP"
}, {
	"icao": "FZKA",
	"size": 2,
	"name": "Bunia Airport",
	"lat": 1.565719962,
	"lon": 30.2208004,
	"iata": "BUX"
}, {
	"icao": "FZNA",
	"size": 2,
	"name": "Goma International Airport",
	"lat": -1.670809984,
	"lon": 29.2385006,
	"iata": "GOM"
}, {
	"icao": "FZOA",
	"size": 2,
	"name": "Kindu Airport",
	"lat": -2.919179916,
	"lon": 25.91539955,
	"iata": "KND"
}, {
	"icao": "FZQA",
	"size": 2,
	"name": "Lubumbashi International Airport",
	"lat": -11.59130001,
	"lon": 27.53089905,
	"iata": "FBM"
}, {
	"icao": "FZQM",
	"size": 2,
	"name": "Kolwezi Airport",
	"lat": -10.76589966,
	"lon": 25.50569916,
	"iata": "KWZ"
}, {
	"icao": "FZRF",
	"size": 2,
	"name": "Kalemie Airport",
	"lat": -5.875559807,
	"lon": 29.25,
	"iata": "FMI"
}, {
	"icao": "FZUA",
	"size": 2,
	"name": "Kananga Airport",
	"lat": -5.900050163,
	"lon": 22.46920013,
	"iata": "KGA"
}, {
	"icao": "FZWA",
	"size": 2,
	"name": "Mbuji Mayi Airport",
	"lat": -6.121240139,
	"lon": 23.56900024,
	"iata": "MJM"
}, {
	"icao": "GABS",
	"size": 1,
	"name": "Modibo Keita International Airport",
	"lat": 12.5335,
	"lon": -7.94994,
	"iata": "BKO"
}, {
	"icao": "GAGO",
	"size": 2,
	"name": "Gao Airport",
	"lat": 16.24839973,
	"lon": -0.005456,
	"iata": "GAQ"
}, {
	"icao": "GAKY",
	"size": 2,
	"name": "Kayes Dag Dag Airport",
	"lat": 14.48120022,
	"lon": -11.40439987,
	"iata": "KYS"
}, {
	"icao": "GAMB",
	"size": 2,
	"name": "Mopti Airport",
	"lat": 14.51280022,
	"lon": -4.079559803,
	"iata": "MZI"
}, {
	"icao": "GATB",
	"size": 2,
	"name": "Timbuktu Airport",
	"lat": 16.73049927,
	"lon": -3.007580042,
	"iata": "TOM"
}, {
	"icao": "GB-OUK",
	"size": 2,
	"name": "Outer Skerries Airport",
	"lat": 60.4252,
	"lon": -0.75,
	"iata": "OUK"
}, {
	"icao": "GBYD",
	"size": 2,
	"name": "Banjul International Airport",
	"lat": 13.3380003,
	"lon": -16.6522007,
	"iata": "BJL"
}, {
	"icao": "GCFV",
	"size": 2,
	"name": "Fuerteventura Airport",
	"lat": 28.45269966,
	"lon": -13.86380005,
	"iata": "FUE"
}, {
	"icao": "GCHI",
	"size": 2,
	"name": "Hierro Airport",
	"lat": 27.81480026,
	"lon": -17.88710022,
	"iata": "VDE"
}, {
	"icao": "GCLA",
	"size": 1,
	"name": "La Palma Airport",
	"lat": 28.626499,
	"lon": -17.7556,
	"iata": "SPC"
}, {
	"icao": "GCLP",
	"size": 1,
	"name": "Gran Canaria Airport",
	"lat": 27.93190002,
	"lon": -15.38659954,
	"iata": "LPA"
}, {
	"icao": "GCRR",
	"size": 2,
	"name": "Lanzarote Airport",
	"lat": 28.945499,
	"lon": -13.6052,
	"iata": "ACE"
}, {
	"icao": "GCTS",
	"size": 1,
	"name": "Tenerife South Airport",
	"lat": 28.04450035,
	"lon": -16.57250023,
	"iata": "TFS"
}, {
	"icao": "GCXO",
	"size": 1,
	"name": "Tenerife Norte Airport",
	"lat": 28.48270035,
	"lon": -16.34149933,
	"iata": "TFN"
}, {
	"icao": "GEML",
	"size": 2,
	"name": "Melilla Airport",
	"lat": 35.27980042,
	"lon": -2.956259966,
	"iata": "MLN"
}, {
	"icao": "GFBN",
	"size": 2,
	"name": "Sherbro International Airport",
	"lat": 7.532420158,
	"lon": -12.51889992,
	"iata": "BTE"
}, {
	"icao": "GFBO",
	"size": 2,
	"name": "Bo Airport",
	"lat": 7.944399834,
	"lon": -11.76099968,
	"iata": "KBS"
}, {
	"icao": "GFKE",
	"size": 2,
	"name": "Kenema Airport",
	"lat": 7.891290188,
	"lon": -11.17660046,
	"iata": "KEN"
}, {
	"icao": "GFLL",
	"size": 1,
	"name": "Lungi International Airport",
	"lat": 8.61644,
	"lon": -13.1955,
	"iata": "FNA"
}, {
	"icao": "GFYE",
	"size": 2,
	"name": "Yengema Airport",
	"lat": 8.610469818,
	"lon": -11.04539967,
	"iata": "WYE"
}, {
	"icao": "GGOV",
	"size": 2,
	"name": "Osvaldo Vieira International Airport",
	"lat": 11.89480019,
	"lon": -15.65369987,
	"iata": "OXB"
}, {
	"icao": "GLMR",
	"size": 2,
	"name": "Spriggs Payne Airport",
	"lat": 6.289060116,
	"lon": -10.75870037,
	"iata": "MLW"
}, {
	"icao": "GLRB",
	"size": 1,
	"name": "Roberts International Airport",
	"lat": 6.23379,
	"lon": -10.3623,
	"iata": "ROB"
}, {
	"icao": "GMAD",
	"size": 2,
	"name": "Al Massira Airport",
	"lat": 30.32500076,
	"lon": -9.413069725,
	"iata": "AGA"
}, {
	"icao": "GMAT",
	"size": 2,
	"name": "Tan Tan Airport",
	"lat": 28.44820023,
	"lon": -11.16129971,
	"iata": "TTA"
}, {
	"icao": "GMFF",
	"size": 2,
	"name": "Saïss Airport",
	"lat": 33.9272995,
	"lon": -4.97796011,
	"iata": "FEZ"
}, {
	"icao": "GMFK",
	"size": 2,
	"name": "Moulay Ali Cherif Airport",
	"lat": 31.94750023,
	"lon": -4.398330212,
	"iata": "ERH"
}, {
	"icao": "GMFO",
	"size": 2,
	"name": "Angads Airport",
	"lat": 34.78720093,
	"lon": -1.923990011,
	"iata": "OUD"
}, {
	"icao": "GMMA",
	"size": 2,
	"name": "Smara Airport",
	"lat": 26.7318,
	"lon": -11.6847,
	"iata": "SMW"
}, {
	"icao": "GMME",
	"size": 2,
	"name": "Rabat-Salé Airport",
	"lat": 34.051498,
	"lon": -6.75152,
	"iata": "RBA"
}, {
	"icao": "GMMH",
	"size": 2,
	"name": "Dakhla Airport",
	"lat": 23.7183,
	"lon": -15.932,
	"iata": "VIL"
}, {
	"icao": "GMML",
	"size": 2,
	"name": "Hassan I Airport",
	"lat": 27.151699,
	"lon": -13.2192,
	"iata": "EUN"
}, {
	"icao": "GMMN",
	"size": 1,
	"name": "Mohammed V International Airport",
	"lat": 33.36750031,
	"lon": -7.589970112,
	"iata": "CMN"
}, {
	"icao": "GMMW",
	"size": 2,
	"name": "Nador International Airport",
	"lat": 34.98880005,
	"lon": -3.028209925,
	"iata": "NDR"
}, {
	"icao": "GMMX",
	"size": 2,
	"name": "Menara Airport",
	"lat": 31.60689926,
	"lon": -8.036299706,
	"iata": "RAK"
}, {
	"icao": "GMMZ",
	"size": 2,
	"name": "Ouarzazate Airport",
	"lat": 30.93910027,
	"lon": -6.909430027,
	"iata": "OZZ"
}, {
	"icao": "GMQ",
	"size": 2,
	"name": "Golog Maqin Airport",
	"lat": 34.418066,
	"lon": 100.301144,
	"iata": "GMQ"
}, {
	"icao": "GMTA",
	"size": 2,
	"name": "Cherif Al Idrissi Airport",
	"lat": 35.17710114,
	"lon": -3.839519978,
	"iata": "AHU"
}, {
	"icao": "GMTT",
	"size": 2,
	"name": "Ibn Batouta Airport",
	"lat": 35.72689819,
	"lon": -5.916890144,
	"iata": "TNG"
}, {
	"icao": "GOBD",
	"size": 1,
	"name": "Blaise Diagne International Airport",
	"lat": 14.67,
	"lon": -17.073333,
	"iata": "DSS"
}, {
	"icao": "GOGG",
	"size": 2,
	"name": "Ziguinchor Airport",
	"lat": 12.5556,
	"lon": -16.281799,
	"iata": "ZIG"
}, {
	"icao": "GOGS",
	"size": 2,
	"name": "Cap Skirring Airport",
	"lat": 12.39533,
	"lon": -16.748,
	"iata": "CSK"
}, {
	"icao": "GOOY",
	"size": 1,
	"name": "Léopold Sédar Senghor International Airport",
	"lat": 14.73970032,
	"lon": -17.49020004,
	"iata": "DKR"
}, {
	"icao": "GOSM",
	"size": 2,
	"name": "Ouro Sogui Airport",
	"lat": 15.5936,
	"lon": -13.3228,
	"iata": "MAX"
}, {
	"icao": "GOSS",
	"size": 2,
	"name": "Saint Louis Airport",
	"lat": 16.05080032,
	"lon": -16.46319962,
	"iata": "XLS"
}, {
	"icao": "GOTT",
	"size": 2,
	"name": "Tambacounda Airport",
	"lat": 13.73680019,
	"lon": -13.65310001,
	"iata": "TUD"
}, {
	"icao": "GQNO",
	"size": 1,
	"name": "Nouakchott–Oumtounsy International Airport",
	"lat": 18.31,
	"lon": -15.9697222,
	"iata": "NKC"
}, {
	"icao": "GQPP",
	"size": 2,
	"name": "Nouadhibou International Airport",
	"lat": 20.93309975,
	"lon": -17.03000069,
	"iata": "NDB"
}, {
	"icao": "GUCY",
	"size": 2,
	"name": "Conakry International Airport",
	"lat": 9.57689,
	"lon": -13.612,
	"iata": "CKY"
}, {
	"icao": "GVAC",
	"size": 1,
	"name": "Amílcar Cabral International Airport",
	"lat": 16.7414,
	"lon": -22.9494,
	"iata": "SID"
}, {
	"icao": "GVBA",
	"size": 2,
	"name": "Rabil Airport",
	"lat": 16.1364994,
	"lon": -22.88890076,
	"iata": "BVC"
}, {
	"icao": "GVMA",
	"size": 2,
	"name": "Maio Airport",
	"lat": 15.1559,
	"lon": -23.21369934,
	"iata": "MMO"
}, {
	"icao": "GVNP",
	"size": 2,
	"name": "Praia International Airport",
	"lat": 14.92450047,
	"lon": -23.49349976,
	"iata": "RAI"
}, {
	"icao": "GVSN",
	"size": 2,
	"name": "Preguiça Airport",
	"lat": 16.58839989,
	"lon": -24.28470039,
	"iata": "SNE"
}, {
	"icao": "HAAB",
	"size": 1,
	"name": "Addis Ababa Bole International Airport",
	"lat": 8.977890015,
	"lon": 38.79930115,
	"iata": "ADD"
}, {
	"icao": "HAAM",
	"size": 2,
	"name": "Arba Minch Airport",
	"lat": 6.039390087,
	"lon": 37.59049988,
	"iata": "AMH"
}, {
	"icao": "HAAX",
	"size": 2,
	"name": "Axum Airport",
	"lat": 14.14680004,
	"lon": 38.77280045,
	"iata": "AXU"
}, {
	"icao": "HABD",
	"size": 2,
	"name": "Bahir Dar Airport",
	"lat": 11.60809994,
	"lon": 37.32160187,
	"iata": "BJR"
}, {
	"icao": "HADR",
	"size": 2,
	"name": "Aba Tenna Dejazmach Yilma International Airport",
	"lat": 9.624699593,
	"lon": 41.85419846,
	"iata": "DIR"
}, {
	"icao": "HAGM",
	"size": 2,
	"name": "Gambella Airport",
	"lat": 8.128760338,
	"lon": 34.56309891,
	"iata": "GMB"
}, {
	"icao": "HAGN",
	"size": 2,
	"name": "Gonder Airport",
	"lat": 12.51990032,
	"lon": 37.43399811,
	"iata": "GDQ"
}, {
	"icao": "HAGO",
	"size": 2,
	"name": "Gode Airport",
	"lat": 5.935130119,
	"lon": 43.57860184,
	"iata": "GDE"
}, {
	"icao": "HAJJ",
	"size": 2,
	"name": "Wilwal International Airport",
	"lat": 9.3325,
	"lon": 42.9121,
	"iata": "JIJ"
}, {
	"icao": "HAJM",
	"size": 2,
	"name": "Jimma Airport",
	"lat": 7.666090012,
	"lon": 36.8166008,
	"iata": "JIM"
}, {
	"icao": "HASO",
	"size": 2,
	"name": "Asosa Airport",
	"lat": 10.01850033,
	"lon": 34.5862999,
	"iata": "ASO"
}, {
	"icao": "HBBA",
	"size": 2,
	"name": "Bujumbura International Airport",
	"lat": -3.324019909,
	"lon": 29.31850052,
	"iata": "BJM"
}, {
	"icao": "HBQ",
	"size": 2,
	"name": "Qilian Airport",
	"lat": 38.012,
	"lon": 100.644,
	"iata": "HBQ"
}, {
	"icao": "HCMH",
	"size": 1,
	"name": "Egal International Airport",
	"lat": 9.513207,
	"lon": 44.082389,
	"iata": "HGA"
}, {
	"icao": "HCMI",
	"size": 2,
	"name": "Berbera Airport",
	"lat": 10.38920021,
	"lon": 44.94110107,
	"iata": "BBO"
},