[
  {
    "size" : 1,
    "iata" : "POM",
    "lat" : -9.4433803560000005,
    "name" : "Port Moresby Jacksons International Airport",
    "icao" : "AYPY",
    "lon" : 147.22000120000001
  },
  {
    "size" : 2,
    "iata" : "EGS",
    "lat" : 65.283302309999996,
    "name" : "Egilsstaðir Airport",
    "icao" : "BIEG",
    "lon" : -14.40139961
  },
  {
    "size" : 1,
    "iata" : "KEF",
    "lat" : 63.985000999999997,
    "name" : "Keflavik International Airport",
    "icao" : "BIKF",
    "lon" : -22.605599999999999
  },
  {
    "size" : 2,
    "iata" : "RKV",
    "lat" : 64.129997250000002,
    "name" : "Reykjavik Airport",
    "icao" : "BIRK",
    "lon" : -21.94059944
  },
  {
    "size" : 1,
    "iata" : "PRN",
    "lat" : 42.572800000000001,
    "name" : "Priština International Airport",
    "icao" : "BKPR",
    "lon" : 21.035800999999999
  },
  {
    "size" : 1,
    "iata" : "",
    "lat" : 36.001741000000003,
    "name" : "Guodu air base",
    "icao" : "CN-0083",
    "lon" : 117.63200999999999
  },
  {
    "size" : 1,
    "iata" : "YEG",
    "lat" : 53.30970001,
    "name" : "Edmonton International Airport",
    "icao" : "CYEG",
    "lon" : -113.58000180000001
  },
  {
    "size" : 2,
    "iata" : "YFB",
    "lat" : 63.756402000000001,
    "name" : "Iqaluit Airport",
    "icao" : "CYFB",
    "lon" : -68.555801000000002
  },
  {
    "size" : 2,
    "iata" : "YHM",
    "lat" : 43.173599240000001,
    "name" : "John C. Munro Hamilton International Airport",
    "icao" : "CYHM",
    "lon" : -79.934997559999999
  },
  {
    "size" : 1,
    "iata" : "YHZ",
    "lat" : 44.880798339999998,
    "name" : "Halifax / Stanfield International Airport",
    "icao" : "CYHZ",
    "lon" : -63.508598329999998
  },
  {
    "size" : 2,
    "iata" : "YJT",
    "lat" : 48.5442009,
    "name" : "Stephenville Airport",
    "icao" : "CYJT",
    "lon" : -58.549999239999998
  },
  {
    "size" : 1,
    "iata" : "YOW",
    "lat" : 45.322498320000001,
    "name" : "Ottawa Macdonald-Cartier International Airport",
    "icao" : "CYOW",
    "lon" : -75.669197080000004
  },
  {
    "size" : 2,
    "iata" : "YQM",
    "lat" : 46.112202000000003,
    "name" : "Greater Moncton Roméo LeBlanc International Airport",
    "icao" : "CYQM",
    "lon" : -64.678595999999999
  },
  {
    "size" : 2,
    "iata" : "YQX",
    "lat" : 48.936901089999999,
    "name" : "Gander International Airport",
    "icao" : "CYQX",
    "lon" : -54.56809998
  },
  {
    "size" : 1,
    "iata" : "YUL",
    "lat" : 45.470600130000001,
    "name" : "Montreal / Pierre Elliott Trudeau International Airport",
    "icao" : "CYUL",
    "lon" : -73.740798949999999
  },
  {
    "size" : 1,
    "iata" : "YVR",
    "lat" : 49.193901060000002,
    "name" : "Vancouver International Airport",
    "icao" : "CYVR",
    "lon" : -123.1839981
  },
  {
    "size" : 1,
    "iata" : "YWG",
    "lat" : 49.909999849999998,
    "name" : "Winnipeg / James Armstrong Richardson International Airport",
    "icao" : "CYWG",
    "lon" : -97.239898679999996
  },
  {
    "size" : 1,
    "iata" : "YYC",
    "lat" : 51.113899230000001,
    "name" : "Calgary International Airport",
    "icao" : "CYYC",
    "lon" : -114.0199966
  },
  {
    "size" : 1,
    "iata" : "YYJ",
    "lat" : 48.646900180000003,
    "name" : "Victoria International Airport",
    "icao" : "CYYJ",
    "lon" : -123.4260025
  },
  {
    "size" : 2,
    "iata" : "YYR",
    "lat" : 53.319198610000001,
    "name" : "Goose Bay Airport",
    "icao" : "CYYR",
    "lon" : -60.42580032
  },
  {
    "size" : 1,
    "iata" : "YYT",
    "lat" : 47.618598939999998,
    "name" : "St. John's International Airport",
    "icao" : "CYYT",
    "lon" : -52.751899719999997
  },
  {
    "size" : 0,
    "iata" : "YYZ",
    "lat" : 43.677200319999997,
    "name" : "Lester B. Pearson International Airport",
    "icao" : "CYYZ",
    "lon" : -79.63059998
  },
  {
    "size" : 1,
    "iata" : "ALG",
    "lat" : 36.691001890000003,
    "name" : "Houari Boumediene Airport",
    "icao" : "DAAG",
    "lon" : 3.2154099939999998
  },
  {
    "size" : 1,
    "iata" : "OUA",
    "lat" : 12.353199999999999,
    "name" : "Ouagadougou Airport",
    "icao" : "DFFD",
    "lon" : -1.5124200000000001
  },
  {
    "size" : 1,
    "iata" : "ACC",
    "lat" : 5.6051897999999998,
    "name" : "Kotoka International Airport",
    "icao" : "DGAA",
    "lon" : -0.16678599999999999
  },
  {
    "size" : 1,
    "iata" : "ABV",
    "lat" : 9.0067901609999996,
    "name" : "Nnamdi Azikiwe International Airport",
    "icao" : "DNAA",
    "lon" : 7.2631697649999998
  },
  {
    "size" : 1,
    "iata" : "QUO",
    "lat" : 4.8724999999999996,
    "name" : "Akwa Ibom International Airport",
    "icao" : "DNAI",
    "lon" : 8.093
  },
  {
    "size" : 1,
    "iata" : "KAN",
    "lat" : 12.047599999999999,
    "name" : "Mallam Aminu International Airport",
    "icao" : "DNKN",
    "lon" : 8.5246200000000005
  },
  {
    "size" : 1,
    "iata" : "LOS",
    "lat" : 6.5773701669999998,
    "name" : "Murtala Muhammed International Airport",
    "icao" : "DNMM",
    "lon" : 3.3211600780000001
  },
  {
    "size" : 1,
    "iata" : "NIM",
    "lat" : 13.4815,
    "name" : "Diori Hamani International Airport",
    "icao" : "DRRN",
    "lon" : 2.1836099999999998
  },
  {
    "size" : 1,
    "iata" : "TUN",
    "lat" : 36.851001740000001,
    "name" : "Tunis Carthage International Airport",
    "icao" : "DTTA",
    "lon" : 10.22719955
  },
  {
    "size" : 1,
    "iata" : "BRU",
    "lat" : 50.90140152,
    "name" : "Brussels Airport",
    "icao" : "EBBR",
    "lon" : 4.4844398500000002
  },
  {
    "size" : 1,
    "iata" : "CRL",
    "lat" : 50.459201999999998,
    "name" : "Brussels South Charleroi Airport",
    "icao" : "EBCI",
    "lon" : 4.4538200000000003
  },
  {
    "size" : 1,
    "iata" : "LGG",
    "lat" : 50.637401580000002,
    "name" : "Liège Airport",
    "icao" : "EBLG",
    "lon" : 5.4432201390000001
  },
  {
    "size" : 1,
    "iata" : "SXF",
    "lat" : 52.380001,
    "name" : "Berlin-Schönefeld Airport",
    "icao" : "EDDB",
    "lon" : 13.522500000000001
  },
  {
    "size" : 1,
    "iata" : "DRS",
    "lat" : 51.132801059999998,
    "name" : "Dresden Airport",
    "icao" : "EDDC",
    "lon" : 13.767200470000001
  },
  {
    "size" : 0,
    "iata" : "FRA",
    "lat" : 50.033332999999999,
    "name" : "Frankfurt am Main Airport",
    "icao" : "EDDF",
    "lon" : 8.5705559999999998
  },
  {
    "size" : 1,
    "iata" : "FMO",
    "lat" : 52.134601590000003,
    "name" : "Münster Osnabrück Airport",
    "icao" : "EDDG",
    "lon" : 7.6848301890000004
  },
  {
    "size" : 1,
    "iata" : "HAM",
    "lat" : 53.63040161,
    "name" : "Hamburg Airport",
    "icao" : "EDDH",
    "lon" : 9.9882297520000005
  },
  {
    "size" : 1,
    "iata" : "CGN",
    "lat" : 50.865898129999998,
    "name" : "Cologne Bonn Airport",
    "icao" : "EDDK",
    "lon" : 7.1427397729999997
  },
  {
    "size" : 1,
    "iata" : "DUS",
    "lat" : 51.289501000000001,
    "name" : "Düsseldorf Airport",
    "icao" : "EDDL",
    "lon" : 6.7667799999999998
  },
  {
    "size" : 0,
    "iata" : "MUC",
    "lat" : 48.353802000000002,
    "name" : "Munich Airport",
    "icao" : "EDDM",
    "lon" : 11.786099999999999
  },
  {
    "size" : 1,
    "iata" : "NUE",
    "lat" : 49.498699000000002,
    "name" : "Nuremberg Airport",
    "icao" : "EDDN",
    "lon" : 11.078056
  },
  {
    "size" : 1,
    "iata" : "LEJ",
    "lat" : 51.423889000000003,
    "name" : "Leipzig/Halle Airport",
    "icao" : "EDDP",
    "lon" : 12.236389000000001
  },
  {
    "size" : 1,
    "iata" : "STR",
    "lat" : 48.689899439999998,
    "name" : "Stuttgart Airport",
    "icao" : "EDDS",
    "lon" : 9.2219600679999996
  },
  {
    "size" : 1,
    "iata" : "TXL",
    "lat" : 52.559699999999999,
    "name" : "Berlin-Tegel Airport",
    "icao" : "EDDT",
    "lon" : 13.287699999999999
  },
  {
    "size" : 1,
    "iata" : "HAJ",
    "lat" : 52.461101530000001,
    "name" : "Hannover Airport",
    "icao" : "EDDV",
    "lon" : 9.6850795749999996
  },
  {
    "size" : 1,
    "iata" : "BRE",
    "lat" : 53.04750061,
    "name" : "Bremen Airport",
    "icao" : "EDDW",
    "lon" : 8.7866697309999999
  },
  {
    "size" : 1,
    "iata" : "DTM",
    "lat" : 51.5182991,
    "name" : "Dortmund Airport",
    "icao" : "EDLW",
    "lon" : 7.6122398379999998
  },
  {
    "size" : 1,
    "iata" : "FKB",
    "lat" : 48.779399869999999,
    "name" : "Karlsruhe Baden-Baden Airport",
    "icao" : "EDSB",
    "lon" : 8.0804996490000001
  },
  {
    "size" : 1,
    "iata" : "TLL",
    "lat" : 59.413299559999999,
    "name" : "Lennart Meri Tallinn Airport",
    "icao" : "EETN",
    "lon" : 24.832799909999999
  },
  {
    "size" : 1,
    "iata" : "HEL",
    "lat" : 60.317199709999997,
    "name" : "Helsinki Vantaa Airport",
    "icao" : "EFHK",
    "lon" : 24.963300700000001
  },
  {
    "size" : 1,
    "iata" : "BFS",
    "lat" : 54.65750122,
    "name" : "Belfast International Airport",
    "icao" : "EGAA",
    "lon" : -6.2158298490000004
  },
  {
    "size" : 1,
    "iata" : "BHD",
    "lat" : 54.618099209999997,
    "name" : "George Best Belfast City Airport",
    "icao" : "EGAC",
    "lon" : -5.8724999430000002
  },
  {
    "size" : 1,
    "iata" : "BHX",
    "lat" : 52.453899380000003,
    "name" : "Birmingham International Airport",
    "icao" : "EGBB",
    "lon" : -1.748029947
  },
  {
    "size" : 1,
    "iata" : "MAN",
    "lat" : 53.353698729999998,
    "name" : "Manchester Airport",
    "icao" : "EGCC",
    "lon" : -2.274950027
  },
  {
    "size" : 1,
    "iata" : "DSA",
    "lat" : 53.480537810000001,
    "name" : "Robin Hood Doncaster Sheffield Airport",
    "icao" : "EGCN",
    "lon" : -1.010656357
  },
  {
    "size" : 1,
    "iata" : "CWL",
    "lat" : 51.396701810000003,
    "name" : "Cardiff International Airport",
    "icao" : "EGFF",
    "lon" : -3.3433299060000001
  },
  {
    "size" : 1,
    "iata" : "BRS",
    "lat" : 51.382702000000002,
    "name" : "Bristol Airport",
    "icao" : "EGGD",
    "lon" : -2.71909
  },
  {
    "size" : 1,
    "iata" : "LPL",
    "lat" : 53.33359909,
    "name" : "Liverpool John Lennon Airport",
    "icao" : "EGGP",
    "lon" : -2.8497200010000001
  },
  {
    "size" : 1,
    "iata" : "LTN",
    "lat" : 51.874698639999998,
    "name" : "London Luton Airport",
    "icao" : "EGGW",
    "lon" : -0.36833301200000002
  },
  {
    "size" : 1,
    "iata" : "BOH",
    "lat" : 50.77999878,
    "name" : "Bournemouth Airport",
    "icao" : "EGHH",
    "lon" : -1.8424999710000001
  },
  {
    "size" : 1,
    "iata" : "SOU",
    "lat" : 50.950298310000001,
    "name" : "Southampton Airport",
    "icao" : "EGHI",
    "lon" : -1.35679996
  },
  {
    "size" : 0,
    "iata" : "LGW",
    "lat" : 51.148102000000002,
    "name" : "London Gatwick Airport",
    "icao" : "EGKK",
    "lon" : -0.190278
  },
  {
    "size" : 0,
    "iata" : "LHR",
    "lat" : 51.470599999999997,
    "name" : "London Heathrow Airport",
    "icao" : "EGLL",
    "lon" : -0.46194099999999999
  },
  {
    "size" : 1,
    "iata" : "LBA",
    "lat" : 53.865898129999998,
    "name" : "Leeds Bradford Airport",
    "icao" : "EGNM",
    "lon" : -1.6605700249999999
  },
  {
    "size" : 1,
    "iata" : "NCL",
    "lat" : 55.037498470000003,
    "name" : "Newcastle Airport",
    "icao" : "EGNT",
    "lon" : -1.691669941
  },
  {
    "size" : 1,
    "iata" : "EMA",
    "lat" : 52.831100460000002,
    "name" : "East Midlands Airport",
    "icao" : "EGNX",
    "lon" : -1.3280600309999999
  },
  {
    "size" : 1,
    "iata" : "ABZ",
    "lat" : 57.201900479999999,
    "name" : "Aberdeen Dyce Airport",
    "icao" : "EGPD",
    "lon" : -2.197779894
  },
  {
    "size" : 1,
    "iata" : "GLA",
    "lat" : 55.871898999999999,
    "name" : "Glasgow International Airport",
    "icao" : "EGPF",
    "lon" : -4.4330600000000002
  },
  {
    "size" : 1,
    "iata" : "EDI",
    "lat" : 55.950000760000002,
    "name" : "Edinburgh Airport",
    "icao" : "EGPH",
    "lon" : -3.3724999429999998
  },
  {
    "size" : 2,
    "iata" : "PIK",
    "lat" : 55.50939941,
    "name" : "Glasgow Prestwick Airport",
    "icao" : "EGPK",
    "lon" : -4.5866699219999996
  },
  {
    "size" : 1,
    "iata" : "NWI",
    "lat" : 52.67580032,
    "name" : "Norwich International Airport",
    "icao" : "EGSH",
    "lon" : 1.282780051
  },
  {
    "size" : 1,
    "iata" : "STN",
    "lat" : 51.884998320000001,
    "name" : "London Stansted Airport",
    "icao" : "EGSS",
    "lon" : 0.23499999899999999
  },
  {
    "size" : 1,
    "iata" : "EXT",
    "lat" : 50.734401699999999,
    "name" : "Exeter International Airport",
    "icao" : "EGTE",
    "lon" : -3.4138898850000001
  },
  {
    "size" : 1,
    "iata" : "LKZ",
    "lat" : 52.409301759999998,
    "name" : "RAF Lakenheath",
    "icao" : "EGUL",
    "lon" : 0.56099999
  },
  {
    "size" : 1,
    "iata" : "MHZ",
    "lat" : 52.361900329999997,
    "name" : "RAF Mildenhall",
    "icao" : "EGUN",
    "lon" : 0.48640599800000001
  },
  {
    "size" : 1,
    "iata" : "FFD",
    "lat" : 51.682201390000003,
    "name" : "RAF Fairford",
    "icao" : "EGVA",
    "lon" : -1.790030003
  },
  {
    "size" : 1,
    "iata" : "BZZ",
    "lat" : 51.75,
    "name" : "RAF Brize Norton",
    "icao" : "EGVN",
    "lon" : -1.58362
  },
  {
    "size" : 0,
    "iata" : "AMS",
    "lat" : 52.308601000000003,
    "name" : "Amsterdam Airport Schiphol",
    "icao" : "EHAM",
    "lon" : 4.76389
  },
  {
    "size" : 1,
    "iata" : "EIN",
    "lat" : 51.450099950000002,
    "name" : "Eindhoven Airport",
    "icao" : "EHEH",
    "lon" : 5.374529839
  },
  {
    "size" : 1,
    "iata" : "ORK",
    "lat" : 51.841300959999998,
    "name" : "Cork Airport",
    "icao" : "EICK",
    "lon" : -8.4911098480000007
  },
  {
    "size" : 1,
    "iata" : "DUB",
    "lat" : 53.421298999999998,
    "name" : "Dublin Airport",
    "icao" : "EIDW",
    "lon" : -6.2700699999999996
  },
  {
    "size" : 1,
    "iata" : "SNN",
    "lat" : 52.701999999999998,
    "name" : "Shannon Airport",
    "icao" : "EINN",
    "lon" : -8.9248200000000004
  },
  {
    "size" : 1,
    "iata" : "BLL",
    "lat" : 55.740299219999997,
    "name" : "Billund Airport",
    "icao" : "EKBI",
    "lon" : 9.1517801280000004
  },
  {
    "size" : 1,
    "iata" : "CPH",
    "lat" : 55.617900849999998,
    "name" : "Copenhagen Kastrup Airport",
    "icao" : "EKCH",
    "lon" : 12.65600014
  },
  {
    "size" : 1,
    "iata" : "AAL",
    "lat" : 57.092758910000001,
    "name" : "Aalborg Airport",
    "icao" : "EKYT",
    "lon" : 9.8492431640000007
  },
  {
    "size" : 1,
    "iata" : "LUX",
    "lat" : 49.623333299999999,
    "name" : "Luxembourg-Findel International Airport",
    "icao" : "ELLX",
    "lon" : 6.2044443999999999
  },
  {
    "size" : 1,
    "iata" : "BOO",
    "lat" : 67.269203189999999,
    "name" : "Bodø Airport",
    "icao" : "ENBO",
    "lon" : 14.36530018
  },
  {
    "size" : 1,
    "iata" : "BGO",
    "lat" : 60.293399809999997,
    "name" : "Bergen Airport Flesland",
    "icao" : "ENBR",
    "lon" : 5.2181401249999997
  },
  {
    "size" : 1,
    "iata" : "OSL",
    "lat" : 60.193901060000002,
    "name" : "Oslo Gardermoen Airport",
    "icao" : "ENGM",
    "lon" : 11.10039997
  },
  {
    "size" : 2,
    "iata" : "LKL",
    "lat" : 70.068801879999995,
    "name" : "Banak Airport",
    "icao" : "ENNA",
    "lon" : 24.9734993
  },
  {
    "size" : 1,
    "iata" : "TOS",
    "lat" : 69.683296200000001,
    "name" : "Tromsø Airport",
    "icao" : "ENTC",
    "lon" : 18.918899540000002
  },
  {
    "size" : 1,
    "iata" : "TRD",
    "lat" : 63.457801799999999,
    "name" : "Trondheim Airport Værnes",
    "icao" : "ENVA",
    "lon" : 10.923999800000001
  },
  {
    "size" : 1,
    "iata" : "SVG",
    "lat" : 58.876701349999998,
    "name" : "Stavanger Airport Sola",
    "icao" : "ENZV",
    "lon" : 5.63778019
  },
  {
    "size" : 1,
    "iata" : "GDN",
    "lat" : 54.37760162,
    "name" : "Gdańsk Lech Wałęsa Airport",
    "icao" : "EPGD",
    "lon" : 18.466199870000001
  },
  {
    "size" : 1,
    "iata" : "KRK",
    "lat" : 50.077702000000002,
    "name" : "Kraków John Paul II International Airport",
    "icao" : "EPKK",
    "lon" : 19.784800000000001
  },
  {
    "size" : 1,
    "iata" : "KTW",
    "lat" : 50.474299999999999,
    "name" : "Katowice International Airport",
    "icao" : "EPKT",
    "lon" : 19.079999999999998
  },
  {
    "size" : 1,
    "iata" : "WMI",
    "lat" : 52.451098999999999,
    "name" : "Modlin Airport",
    "icao" : "EPMO",
    "lon" : 20.651800000000001
  },
  {
    "size" : 1,
    "iata" : "POZ",
    "lat" : 52.421001429999997,
    "name" : "Poznań-Ławica Airport",
    "icao" : "EPPO",
    "lon" : 16.826299670000001
  },
  {
    "size" : 1,
    "iata" : "WAW",
    "lat" : 52.165699009999997,
    "name" : "Warsaw Chopin Airport",
    "icao" : "EPWA",
    "lon" : 20.967100139999999
  },
  {
    "size" : 1,
    "iata" : "WRO",
    "lat" : 51.102699280000003,
    "name" : "Copernicus Wrocław Airport",
    "icao" : "EPWR",
    "lon" : 16.885799410000001
  },
  {
    "size" : 1,
    "iata" : "GOT",
    "lat" : 57.662799839999998,
    "name" : "Gothenburg-Landvetter Airport",
    "icao" : "ESGG",
    "lon" : 12.279800420000001
  },
  {
    "size" : 1,
    "iata" : "MMX",
    "lat" : 55.53630536,
    "name" : "Malmö Sturup Airport",
    "icao" : "ESMS",
    "lon" : 13.376197810000001
  },
  {
    "size" : 2,
    "iata" : "KRN",
    "lat" : 67.821998600000001,
    "name" : "Kiruna Airport",
    "icao" : "ESNQ",
    "lon" : 20.336799620000001
  },
  {
    "size" : 1,
    "iata" : "LLA",
    "lat" : 65.543800349999998,
    "name" : "Luleå Airport",
    "icao" : "ESPA",
    "lon" : 22.12199974
  },
  {
    "size" : 1,
    "iata" : "ARN",
    "lat" : 59.651901250000002,
    "name" : "Stockholm-Arlanda Airport",
    "icao" : "ESSA",
    "lon" : 17.918600080000001
  },
  {
    "size" : 1,
    "iata" : "RMS",
    "lat" : 49.436901089999999,
    "name" : "Ramstein Air Base",
    "icao" : "ETAR",
    "lon" : 7.6002798079999998
  },
  {
    "size" : 1,
    "iata" : "RIX",
    "lat" : 56.923599240000001,
    "name" : "Riga International Airport",
    "icao" : "EVRA",
    "lon" : 23.971099850000002
  },
  {
    "size" : 1,
    "iata" : "VNO",
    "lat" : 54.634101999999999,
    "name" : "Vilnius International Airport",
    "icao" : "EYVI",
    "lon" : 25.285800999999999
  },
  {
    "size" : 1,
    "iata" : "CPT",
    "lat" : -33.964801790000003,
    "name" : "Cape Town International Airport",
    "icao" : "FACT",
    "lon" : 18.601699830000001
  },
  {
    "size" : 1,
    "iata" : "GRJ",
    "lat" : -34.005600000000001,
    "name" : "George Airport",
    "icao" : "FAGG",
    "lon" : 22.378902
  },
  {
    "size" : 1,
    "iata" : "DUR",
    "lat" : -29.61444444,
    "name" : "King Shaka International Airport",
    "icao" : "FALE",
    "lon" : 31.11972222
  },
  {
    "size" : 1,
    "iata" : "JNB",
    "lat" : -26.139199999999999,
    "name" : "OR Tambo International Airport",
    "icao" : "FAOR",
    "lon" : 28.245999999999999
  },
  {
    "size" : 1,
    "iata" : "GBE",
    "lat" : -24.555201,
    "name" : "Sir Seretse Khama International Airport",
    "icao" : "FBSK",
    "lon" : 25.918199999999999
  },
  {
    "size" : 1,
    "iata" : "SHO",
    "lat" : -26.358611,
    "name" : "King Mswati III International Airport",
    "icao" : "FDSK",
    "lon" : 31.716944000000002
  },
  {
    "size" : 1,
    "iata" : "MRU",
    "lat" : -20.430201,
    "name" : "Sir Seewoosagur Ramgoolam International Airport",
    "icao" : "FIMP",
    "lon" : 57.683601000000003
  },
  {
    "size" : 1,
    "iata" : "LUN",
    "lat" : -15.3308,
    "name" : "Kenneth Kaunda International Airport",
    "icao" : "FLLS",
    "lon" : 28.4526
  },
  {
    "size" : 1,
    "iata" : "TNR",
    "lat" : -18.796900000000001,
    "name" : "Ivato Airport",
    "icao" : "FMMI",
    "lon" : 47.478802000000002
  },
  {
    "size" : 1,
    "iata" : "LAD",
    "lat" : -8.8583700000000007,
    "name" : "Quatro de Fevereiro Airport",
    "icao" : "FNLU",
    "lon" : 13.231199999999999
  },
  {
    "size" : 1,
    "iata" : "MPM",
    "lat" : -25.920798999999999,
    "name" : "Maputo Airport",
    "icao" : "FQMA",
    "lon" : 32.572600999999999
  },
  {
    "size" : 1,
    "iata" : "SEZ",
    "lat" : -4.6743399999999999,
    "name" : "Seychelles International Airport",
    "icao" : "FSIA",
    "lon" : 55.521801000000004
  },
  {
    "size" : 1,
    "iata" : "NDJ",
    "lat" : 12.133699999999999,
    "name" : "N'Djamena International Airport",
    "icao" : "FTTJ",
    "lon" : 15.034000000000001
  },
  {
    "size" : 1,
    "iata" : "HRE",
    "lat" : -17.931801,
    "name" : "Robert Gabriel Mugabe International Airport",
    "icao" : "FVHA",
    "lon" : 31.0928
  },
  {
    "size" : 1,
    "iata" : "WDH",
    "lat" : -22.479900000000001,
    "name" : "Hosea Kutako International Airport",
    "icao" : "FYWH",
    "lon" : 17.4709
  },
  {
    "size" : 1,
    "iata" : "FIH",
    "lat" : -4.3857499999999998,
    "name" : "Ndjili International Airport",
    "icao" : "FZAA",
    "lon" : 15.444599999999999
  },
  {
    "size" : 1,
    "iata" : "BKO",
    "lat" : 12.5335,
    "name" : "Modibo Keita International Airport",
    "icao" : "GABS",
    "lon" : -7.9499399999999998
  },
  {
    "size" : 1,
    "iata" : "SPC",
    "lat" : 28.626498999999999,
    "name" : "La Palma Airport",
    "icao" : "GCLA",
    "lon" : -17.755600000000001
  },
  {
    "size" : 1,
    "iata" : "LPA",
    "lat" : 27.93190002,
    "name" : "Gran Canaria Airport",
    "icao" : "GCLP",
    "lon" : -15.386599540000001
  },
  {
    "size" : 1,
    "iata" : "TFS",
    "lat" : 28.04450035,
    "name" : "Tenerife South Airport",
    "icao" : "GCTS",
    "lon" : -16.572500229999999
  },
  {
    "size" : 1,
    "iata" : "TFN",
    "lat" : 28.482700349999998,
    "name" : "Tenerife Norte Airport",
    "icao" : "GCXO",
    "lon" : -16.341499330000001
  },
  {
    "size" : 1,
    "iata" : "FNA",
    "lat" : 8.6164400000000008,
    "name" : "Lungi International Airport",
    "icao" : "GFLL",
    "lon" : -13.195499999999999
  },
  {
    "size" : 1,
    "iata" : "ROB",
    "lat" : 6.2337899999999999,
    "name" : "Roberts International Airport",
    "icao" : "GLRB",
    "lon" : -10.362299999999999
  },
  {
    "size" : 1,
    "iata" : "CMN",
    "lat" : 33.367500309999997,
    "name" : "Mohammed V International Airport",
    "icao" : "GMMN",
    "lon" : -7.5899701119999996
  },
  {
    "size" : 1,
    "iata" : "DSS",
    "lat" : 14.67,
    "name" : "Blaise Diagne International Airport",
    "icao" : "GOBD",
    "lon" : -17.073333000000002
  },
  {
    "size" : 1,
    "iata" : "DKR",
    "lat" : 14.739700320000001,
    "name" : "Léopold Sédar Senghor International Airport",
    "icao" : "GOOY",
    "lon" : -17.490200040000001
  },
  {
    "size" : 1,
    "iata" : "NKC",
    "lat" : 18.309999999999999,
    "name" : "Nouakchott–Oumtounsy International Airport",
    "icao" : "GQNO",
    "lon" : -15.9697222
  },
  {
    "size" : 1,
    "iata" : "SID",
    "lat" : 16.741399999999999,
    "name" : "Amílcar Cabral International Airport",
    "icao" : "GVAC",
    "lon" : -22.949400000000001
  },
  {
    "size" : 1,
    "iata" : "ADD",
    "lat" : 8.9778900149999998,
    "name" : "Addis Ababa Bole International Airport",
    "icao" : "HAAB",
    "lon" : 38.799301149999998
  },
  {
    "size" : 1,
    "iata" : "HGA",
    "lat" : 9.5132069999999995,
    "name" : "Egal International Airport",
    "icao" : "HCMH",
    "lon" : 44.082388999999999
  },
  {
    "size" : 1,
    "iata" : "CAI",
    "lat" : 30.12190056,
    "name" : "Cairo International Airport",
    "icao" : "HECA",
    "lon" : 31.405599590000001
  },
  {
    "size" : 1,
    "iata" : "HRG",
    "lat" : 27.17830086,
    "name" : "Hurghada International Airport",
    "icao" : "HEGN",
    "lon" : 33.799400329999997
  },
  {
    "size" : 1,
    "iata" : "LXR",
    "lat" : 25.670999999999999,
    "name" : "Luxor International Airport",
    "icao" : "HELX",
    "lon" : 32.706600000000002
  },
  {
    "size" : 1,
    "iata" : "NBO",
    "lat" : -1.319239974,
    "name" : "Jomo Kenyatta International Airport",
    "icao" : "HKJK",
    "lon" : 36.927799219999997
  },
  {
    "size" : 1,
    "iata" : "MBA",
    "lat" : -4.0348300930000001,
    "name" : "Mombasa Moi International Airport",
    "icao" : "HKMO",
    "lon" : 39.594200129999997
  },
  {
    "size" : 1,
    "iata" : "TIP",
    "lat" : 32.663501740000001,
    "name" : "Tripoli International Airport",
    "icao" : "HLLT",
    "lon" : 13.1590004
  },
  {
    "size" : 1,
    "iata" : "KGL",
    "lat" : -1.9686300000000001,
    "name" : "Kigali International Airport",
    "icao" : "HRYR",
    "lon" : 30.139500000000002
  },
  {
    "size" : 1,
    "iata" : "JUB",
    "lat" : 4.872010231,
    "name" : "Juba International Airport",
    "icao" : "HSSJ",
    "lon" : 31.60110092
  },
  {
    "size" : 1,
    "iata" : "KRT",
    "lat" : 15.589500429999999,
    "name" : "Khartoum International Airport",
    "icao" : "HSSS",
    "lon" : 32.553199769999999
  },
  {
    "size" : 1,
    "iata" : "DAR",
    "lat" : -6.8781100000000004,
    "name" : "Julius Nyerere International Airport",
    "icao" : "HTDA",
    "lon" : 39.202598999999999
  },
  {
    "size" : 1,
    "iata" : "ZNZ",
    "lat" : -6.2220199999999997,
    "name" : "Abeid Amani Karume International Airport",
    "icao" : "HTZA",
    "lon" : 39.224899000000001
  },
  {
    "size" : 1,
    "iata" : "EBB",
    "lat" : 0.042386,
    "name" : "Entebbe International Airport",
    "icao" : "HUEN",
    "lon" : 32.443500999999998
  },
  {
    "size" : 1,
    "iata" : "AAP",
    "lat" : -0.374448,
    "name" : "Aji Pangeran Tumenggung Pranoto International Airport",
    "icao" : "ID-0017",
    "lon" : 117.249392
  },
  {
    "size" : 2,
    "iata" : "ABE",
    "lat" : 40.65209961,
    "name" : "Lehigh Valley International Airport",
    "icao" : "KABE",
    "lon" : -75.440803529999997
  },
  {
    "size" : 2,
    "iata" : "ABI",
    "lat" : 32.411300660000002,
    "name" : "Abilene Regional Airport",
    "icao" : "KABI",
    "lon" : -99.68190002
  },
  {
    "size" : 1,
    "iata" : "ABQ",
    "lat" : 35.040199000000001,
    "name" : "Albuquerque International Sunport",
    "icao" : "KABQ",
    "lon" : -106.60900100000001
  },
  {
    "size" : 2,
    "iata" : "ACK",
    "lat" : 41.253101350000001,
    "name" : "Nantucket Memorial Airport",
    "icao" : "KACK",
    "lon" : -70.060203549999997
  },
  {
    "size" : 2,
    "iata" : "ACY",
    "lat" : 39.457599639999998,
    "name" : "Atlantic City International Airport",
    "icao" : "KACY",
    "lon" : -74.577201840000001
  },
  {
    "size" : 1,
    "iata" : "ADW",
    "lat" : 38.810799000000003,
    "name" : "Joint Base Andrews",
    "icao" : "KADW",
    "lon" : -76.866996999999998
  },
  {
    "size" : 1,
    "iata" : "AFW",
    "lat" : 32.987598419999998,
    "name" : "Fort Worth Alliance Airport",
    "icao" : "KAFW",
    "lon" : -97.318801879999995
  },
  {
    "size" : 1,
    "iata" : "AGS",
    "lat" : 33.369899750000002,
    "name" : "Augusta Regional At Bush Field",
    "icao" : "KAGS",
    "lon" : -81.964500430000001
  },
  {
    "size" : 2,
    "iata" : "ALB",
    "lat" : 42.748298650000002,
    "name" : "Albany International Airport",
    "icao" : "KALB",
    "lon" : -73.80169678
  },
  {
    "size" : 1,
    "iata" : "AMA",
    "lat" : 35.219397999999998,
    "name" : "Rick Husband Amarillo International Airport",
    "icao" : "KAMA",
    "lon" : -101.706001
  },
  {
    "size" : 0,
    "iata" : "ATL",
    "lat" : 33.636699999999998,
    "name" : "Hartsfield Jackson Atlanta International Airport",
    "icao" : "KATL",
    "lon" : -84.428100999999998
  },
  {
    "size" : 1,
    "iata" : "AUS",
    "lat" : 30.194499969999999,
    "name" : "Austin Bergstrom International Airport",
    "icao" : "KAUS",
    "lon" : -97.669898989999993
  },
  {
    "size" : 1,
    "iata" : "AVL",
    "lat" : 35.436199000000002,
    "name" : "Asheville Regional Airport",
    "icao" : "KAVL",
    "lon" : -82.541801000000007
  },
  {
    "size" : 2,
    "iata" : "AVP",
    "lat" : 41.338500979999999,
    "name" : "Wilkes Barre Scranton International Airport",
    "icao" : "KAVP",
    "lon" : -75.723396300000005
  },
  {
    "size" : 1,
    "iata" : "BAB",
    "lat" : 39.136100769999999,
    "name" : "Beale Air Force Base",
    "icao" : "KBAB",
    "lon" : -121.43699650000001
  },
  {
    "size" : 1,
    "iata" : "BAD",
    "lat" : 32.501800539999998,
    "name" : "Barksdale Air Force Base",
    "icao" : "KBAD",
    "lon" : -93.662696839999995
  },
  {
    "size" : 1,
    "iata" : "BDL",
    "lat" : 41.938899990000003,
    "name" : "Bradley International Airport",
    "icao" : "KBDL",
    "lon" : -72.683197019999994
  },
  {
    "size" : 2,
    "iata" : "BFF",
    "lat" : 41.874000549999998,
    "name" : "Western Neb. Rgnl/William B. Heilig Airport",
    "icao" : "KBFF",
    "lon" : -103.5960007
  },
  {
    "size" : 1,
    "iata" : "BFI",
    "lat" : 47.52999878,
    "name" : "Boeing Field King County International Airport",
    "icao" : "KBFI",
    "lon" : -122.302002
  },
  {
    "size" : 1,
    "iata" : "BGR",
    "lat" : 44.807399750000002,
    "name" : "Bangor International Airport",
    "icao" : "KBGR",
    "lon" : -68.828102110000003
  },
  {
    "size" : 1,
    "iata" : "BHM",
    "lat" : 33.562900540000001,
    "name" : "Birmingham-Shuttlesworth International Airport",
    "icao" : "KBHM",
    "lon" : -86.753501889999995
  },
  {
    "size" : 1,
    "iata" : "BIL",
    "lat" : 45.807701110000004,
    "name" : "Billings Logan International Airport",
    "icao" : "KBIL",
    "lon" : -108.54299930000001
  },
  {
    "size" : 2,
    "iata" : "BIS",
    "lat" : 46.772701259999998,
    "name" : "Bismarck Municipal Airport",
    "icao" : "KBIS",
    "lon" : -100.74600220000001
  },
  {
    "size" : 2,
    "iata" : "BLI",
    "lat" : 48.792800900000003,
    "name" : "Bellingham International Airport",
    "icao" : "KBLI",
    "lon" : -122.53800200000001
  },
  {
    "size" : 1,
    "iata" : "BLV",
    "lat" : 38.545200000000001,
    "name" : "Scott AFB/Midamerica Airport",
    "icao" : "KBLV",
    "lon" : -89.835196999999994
  },
  {
    "size" : 1,
    "iata" : "BMI",
    "lat" : 40.477100370000002,
    "name" : "Central Illinois Regional Airport at Bloomington-Normal",
    "icao" : "KBMI",
    "lon" : -88.915901180000006
  },
  {
    "size" : 1,
    "iata" : "BNA",
    "lat" : 36.124500269999999,
    "name" : "Nashville International Airport",
    "icao" : "KBNA",
    "lon" : -86.678199770000006
  },
  {
    "size" : 1,
    "iata" : "BOI",
    "lat" : 43.564399999999999,
    "name" : "Boise Air Terminal/Gowen Field",
    "icao" : "KBOI",
    "lon" : -116.223
  },
  {
    "size" : 1,
    "iata" : "BOS",
    "lat" : 42.364299770000002,
    "name" : "General Edward Lawrence Logan International Airport",
    "icao" : "KBOS",
    "lon" : -71.005203249999994
  },
  {
    "size" : 2,
    "iata" : "BRO",
    "lat" : 25.906799320000001,
    "name" : "Brownsville South Padre Island International Airport",
    "icao" : "KBRO",
    "lon" : -97.425903320000003
  },
  {
    "size" : 2,
    "iata" : "BTR",
    "lat" : 30.533199,
    "name" : "Baton Rouge Metropolitan Airport",
    "icao" : "KBTR",
    "lon" : -91.149597
  },
  {
    "size" : 2,
    "iata" : "BTV",
    "lat" : 44.471900939999998,
    "name" : "Burlington International Airport",
    "icao" : "KBTV",
    "lon" : -73.153297420000001
  },
  {
    "size" : 1,
    "iata" : "BUF",
    "lat" : 42.940498349999999,
    "name" : "Buffalo Niagara International Airport",
    "icao" : "KBUF",
    "lon" : -78.73220062
  },
  {
    "size" : 2,
    "iata" : "BUR",
    "lat" : 34.200698850000002,
    "name" : "Bob Hope Airport",
    "icao" : "KBUR",
    "lon" : -118.35900119999999
  },
  {
    "size" : 1,
    "iata" : "BWI",
    "lat" : 39.175400000000003,
    "name" : "Baltimore/Washington International Thurgood Marshall Airport",
    "icao" : "KBWI",
    "lon" : -76.668296999999995
  },
  {
    "size" : 2,
    "iata" : "BZN",
    "lat" : 45.777500150000002,
    "name" : "Gallatin Field",
    "icao" : "KBZN",
    "lon" : -111.1529999
  },
  {
    "size" : 1,
    "iata" : "CAE",
    "lat" : 33.938800809999996,
    "name" : "Columbia Metropolitan Airport",
    "icao" : "KCAE",
    "lon" : -81.119499210000001
  },
  {
    "size" : 2,
    "iata" : "CAK",
    "lat" : 40.916099549999998,
    "name" : "Akron Canton Regional Airport",
    "icao" : "KCAK",
    "lon" : -81.442199709999997
  },
  {
    "size" : 1,
    "iata" : "CBM",
    "lat" : 33.643798830000001,
    "name" : "Columbus Air Force Base",
    "icao" : "KCBM",
    "lon" : -88.443801879999995
  },
  {
    "size" : 1,
    "iata" : "CHA",
    "lat" : 35.03530121,
    "name" : "Lovell Field",
    "icao" : "KCHA",
    "lon" : -85.203796389999994
  },
  {
    "size" : 1,
    "iata" : "CHS",
    "lat" : 32.898601530000001,
    "name" : "Charleston Air Force Base-International Airport",
    "icao" : "KCHS",
    "lon" : -80.040496829999995
  },
  {
    "size" : 1,
    "iata" : "CID",
    "lat" : 41.884700780000003,
    "name" : "The Eastern Iowa Airport",
    "icao" : "KCID",
    "lon" : -91.710800169999999
  },
  {
    "size" : 1,
    "iata" : "CLE",
    "lat" : 41.411701200000003,
    "name" : "Cleveland Hopkins International Airport",
    "icao" : "KCLE",
    "lon" : -81.849800110000004
  },
  {
    "size" : 0,
    "iata" : "CLT",
    "lat" : 35.2140007,
    "name" : "Charlotte Douglas International Airport",
    "icao" : "KCLT",
    "lon" : -80.94309998
  },
  {
    "size" : 1,
    "iata" : "CMH",
    "lat" : 39.998001000000002,
    "name" : "John Glenn Columbus International Airport",
    "icao" : "KCMH",
    "lon" : -82.891898999999995
  },
  {
    "size" : 1,
    "iata" : "COS",
    "lat" : 38.805801000000002,
    "name" : "City of Colorado Springs Municipal Airport",
    "icao" : "KCOS",
    "lon" : -104.700996
  },
  {
    "size" : 2,
    "iata" : "COU",
    "lat" : 38.818100000000001,
    "name" : "Columbia Regional Airport",
    "icao" : "KCOU",
    "lon" : -92.219596999999993
  },
  {
    "size" : 2,
    "iata" : "CPR",
    "lat" : 42.908000999999999,
    "name" : "Casper-Natrona County International Airport",
    "icao" : "KCPR",
    "lon" : -106.46399700000001
  },
  {
    "size" : 1,
    "iata" : "CRP",
    "lat" : 27.770399090000002,
    "name" : "Corpus Christi International Airport",
    "icao" : "KCRP",
    "lon" : -97.501197809999994
  },
  {
    "size" : 1,
    "iata" : "CRW",
    "lat" : 38.373100280000003,
    "name" : "Yeager Airport",
    "icao" : "KCRW",
    "lon" : -81.593200679999995
  },
  {
    "size" : 2,
    "iata" : "CSG",
    "lat" : 32.516300200000003,
    "name" : "Columbus Metropolitan Airport",
    "icao" : "KCSG",
    "lon" : -84.938903809999999
  },
  {
    "size" : 1,
    "iata" : "CVG",
    "lat" : 39.048800999999997,
    "name" : "Cincinnati Northern Kentucky International Airport",
    "icao" : "KCVG",
    "lon" : -84.667800999999997
  },
  {
    "size" : 1,
    "iata" : "CVS",
    "lat" : 34.382801059999998,
    "name" : "Cannon Air Force Base",
    "icao" : "KCVS",
    "lon" : -103.3219986
  },
  {
    "size" : 2,
    "iata" : "CYS",
    "lat" : 41.155700680000002,
    "name" : "Cheyenne Regional Jerry Olson Field",
    "icao" : "KCYS",
    "lon" : -104.81199650000001
  },
  {
    "size" : 1,
    "iata" : "DAB",
    "lat" : 29.179898999999999,
    "name" : "Daytona Beach International Airport",
    "icao" : "KDAB",
    "lon" : -81.058098000000001
  },
  {
    "size" : 1,
    "iata" : "DAL",
    "lat" : 32.847099,
    "name" : "Dallas Love Field",
    "icao" : "KDAL",
    "lon" : -96.851799
  },
  {
    "size" : 1,
    "iata" : "DAY",
    "lat" : 39.902400970000002,
    "name" : "James M Cox Dayton International Airport",
    "icao" : "KDAY",
    "lon" : -84.219398499999997
  },
  {
    "size" : 1,
    "iata" : "DBQ",
    "lat" : 42.402000430000001,
    "name" : "Dubuque Regional Airport",
    "icao" : "KDBQ",
    "lon" : -90.709503170000005
  },
  {
    "size" : 1,
    "iata" : "DCA",
    "lat" : 38.8521,
    "name" : "Ronald Reagan Washington National Airport",
    "icao" : "KDCA",
    "lon" : -77.037696999999994
  },
  {
    "size" : 0,
    "iata" : "DEN",
    "lat" : 39.861698150000002,
    "name" : "Denver International Airport",
    "icao" : "KDEN",
    "lon" : -104.6729965
  },
  {
    "size" : 0,
    "iata" : "DFW",
    "lat" : 32.896801000000004,
    "name" : "Dallas Fort Worth International Airport",
    "icao" : "KDFW",
    "lon" : -97.038002000000006
  },
  {
    "size" : 1,
    "iata" : "DLF",
    "lat" : 29.359501000000002,
    "name" : "DLF Airport",
    "icao" : "KDLF",
    "lon" : -100.778002
  },
  {
    "size" : 1,
    "iata" : "DLH",
    "lat" : 46.842098239999999,
    "name" : "Duluth International Airport",
    "icao" : "KDLH",
    "lon" : -92.193603519999996
  },
  {
    "size" : 1,
    "iata" : "DOV",
    "lat" : 39.129501339999997,
    "name" : "Dover Air Force Base",
    "icao" : "KDOV",
    "lon" : -75.466003420000007
  },
  {
    "size" : 3,
    "iata" : "DRO",
    "lat" : 37.1515007,
    "name" : "Durango La Plata County Airport",
    "icao" : "KDRO",
    "lon" : -107.75399779999999
  },
  {
    "size" : 1,
    "iata" : "DSM",
    "lat" : 41.534000399999996,
    "name" : "Des Moines International Airport",
    "icao" : "KDSM",
    "lon" : -93.6631012
  },
  {
    "size" : 1,
    "iata" : "DTW",
    "lat" : 42.212398530000002,
    "name" : "Detroit Metropolitan Wayne County Airport",
    "icao" : "KDTW",
    "lon" : -83.353401180000006
  },
  {
    "size" : 1,
    "iata" : "DYS",
    "lat" : 32.420799260000003,
    "name" : "Dyess Air Force Base",
    "icao" : "KDYS",
    "lon" : -99.854598999999993
  },
  {
    "size" : 1,
    "iata" : "EDW",
    "lat" : 34.905399000000003,
    "name" : "Edwards Air Force Base",
    "icao" : "KEDW",
    "lon" : -117.88400300000001
  },
  {
    "size" : 2,
    "iata" : "EGE",
    "lat" : 39.64260101,
    "name" : "Eagle County Regional Airport",
    "icao" : "KEGE",
    "lon" : -106.91799930000001
  },
  {
    "size" : 2,
    "iata" : "ELP",
    "lat" : 31.807199480000001,
    "name" : "El Paso International Airport",
    "icao" : "KELP",
    "lon" : -106.3779984
  },
  {
    "size" : 1,
    "iata" : "END",
    "lat" : 36.339199069999999,
    "name" : "Vance Air Force Base",
    "icao" : "KEND",
    "lon" : -97.916496280000004
  },
  {
    "size" : 1,
    "iata" : "ERI",
    "lat" : 42.083127009999998,
    "name" : "Erie International Tom Ridge Field",
    "icao" : "KERI",
    "lon" : -80.173866750000002
  },
  {
    "size" : 2,
    "iata" : "EUG",
    "lat" : 44.124599459999999,
    "name" : "Mahlon Sweet Field",
    "icao" : "KEUG",
    "lon" : -123.21199799999999
  },
  {
    "size" : 2,
    "iata" : "EVV",
    "lat" : 38.036998750000002,
    "name" : "Evansville Regional Airport",
    "icao" : "KEVV",
    "lon" : -87.532402039999994
  },
  {
    "size" : 0,
    "iata" : "EWR",
    "lat" : 40.692501069999999,
    "name" : "Newark Liberty International Airport",
    "icao" : "KEWR",
    "lon" : -74.168701170000006
  },
  {
    "size" : 2,
    "iata" : "EYW",
    "lat" : 24.55610085,
    "name" : "Key West International Airport",
    "icao" : "KEYW",
    "lon" : -81.759597779999993
  },
  {
    "size" : 2,
    "iata" : "FAR",
    "lat" : 46.920700070000002,
    "name" : "Hector International Airport",
    "icao" : "KFAR",
    "lon" : -96.815803529999997
  },
  {
    "size" : 2,
    "iata" : "FAT",
    "lat" : 36.776198999999998,
    "name" : "Fresno Yosemite International Airport",
    "icao" : "KFAT",
    "lon" : -119.718002
  },
  {
    "size" : 1,
    "iata" : "FFO",
    "lat" : 39.826099399999997,
    "name" : "Wright-Patterson Air Force Base",
    "icao" : "KFFO",
    "lon" : -84.048301699999996
  },
  {
    "size" : 2,
    "iata" : "FLG",
    "lat" : 35.138500209999997,
    "name" : "Flagstaff Pulliam Airport",
    "icao" : "KFLG",
    "lon" : -111.67099760000001
  },
  {
    "size" : 1,
    "iata" : "FLL",
    "lat" : 26.072599,
    "name" : "Fort Lauderdale Hollywood International Airport",
    "icao" : "KFLL",
    "lon" : -80.152702000000005
  },
  {
    "size" : 2,
    "iata" : "FNT",
    "lat" : 42.965400699999996,
    "name" : "Bishop International Airport",
    "icao" : "KFNT",
    "lon" : -83.743598939999998
  },
  {
    "size" : 2,
    "iata" : "FOE",
    "lat" : 38.950901029999997,
    "name" : "Topeka Regional Airport - Forbes Field",
    "icao" : "KFOE",
    "lon" : -95.663597109999998
  },
  {
    "size" : 2,
    "iata" : "FSD",
    "lat" : 43.582000729999997,
    "name" : "Joe Foss Field Airport",
    "icao" : "KFSD",
    "lon" : -96.74189758
  },
  {
    "size" : 1,
    "iata" : "FSM",
    "lat" : 35.336601260000002,
    "name" : "Fort Smith Regional Airport",
    "icao" : "KFSM",
    "lon" : -94.367401119999997
  },
  {
    "size" : 1,
    "iata" : "FTW",
    "lat" : 32.819800999999998,
    "name" : "Fort Worth Meacham International Airport",
    "icao" : "KFTW",
    "lon" : -97.362396000000004
  },
  {
    "size" : 1,
    "iata" : "FWA",
    "lat" : 40.978500369999999,
    "name" : "Fort Wayne International Airport",
    "icao" : "KFWA",
    "lon" : -85.195098880000003
  },
  {
    "size" : 1,
    "iata" : "GEG",
    "lat" : 47.619899750000002,
    "name" : "Spokane International Airport",
    "icao" : "KGEG",
    "lon" : -117.53399659999999
  },
  {
    "size" : 2,
    "iata" : "GGG",
    "lat" : 32.383998869999999,
    "name" : "East Texas Regional Airport",
    "icao" : "KGGG",
    "lon" : -94.711502080000002
  },
  {
    "size" : 2,
    "iata" : "GJT",
    "lat" : 39.12239838,
    "name" : "Grand Junction Regional Airport",
    "icao" : "KGJT",
    "lon" : -108.52700040000001
  },
  {
    "size" : 2,
    "iata" : "GNV",
    "lat" : 29.690099719999999,
    "name" : "Gainesville Regional Airport",
    "icao" : "KGNV",
    "lon" : -82.271797179999993
  },
  {
    "size" : 2,
    "iata" : "FCA",
    "lat" : 48.310501100000003,
    "name" : "Glacier Park International Airport",
    "icao" : "KGPI",
    "lon" : -114.2559967
  },
  {
    "size" : 1,
    "iata" : "GPT",
    "lat" : 30.40730095,
    "name" : "Gulfport Biloxi International Airport",
    "icao" : "KGPT",
    "lon" : -89.070098880000003
  },
  {
    "size" : 1,
    "iata" : "GRB",
    "lat" : 44.48509979,
    "name" : "Austin Straubel International Airport",
    "icao" : "KGRB",
    "lon" : -88.129600519999997
  },
  {
    "size" : 2,
    "iata" : "GRK",
    "lat" : 31.067199710000001,
    "name" : "Robert Gray  Army Air Field Airport",
    "icao" : "KGRK",
    "lon" : -97.828903199999999
  },
  {
    "size" : 2,
    "iata" : "GRR",
    "lat" : 42.880798339999998,
    "name" : "Gerald R. Ford International Airport",
    "icao" : "KGRR",
    "lon" : -85.522796630000002
  },
  {
    "size" : 1,
    "iata" : "GSB",
    "lat" : 35.339401250000002,
    "name" : "Seymour Johnson Air Force Base",
    "icao" : "KGSB",
    "lon" : -77.96060181
  },
  {
    "size" : 1,
    "iata" : "GSO",
    "lat" : 36.09780121,
    "name" : "Piedmont Triad International Airport",
    "icao" : "KGSO",
    "lon" : -79.937301640000001
  },
  {
    "size" : 1,
    "iata" : "GSP",
    "lat" : 34.895698549999999,
    "name" : "Greenville Spartanburg International Airport",
    "icao" : "KGSP",
    "lon" : -82.218902589999999
  },
  {
    "size" : 2,
    "iata" : "GTF",
    "lat" : 47.481998439999998,
    "name" : "Great Falls International Airport",
    "icao" : "KGTF",
    "lon" : -111.37100220000001
  },
  {
    "size" : 3,
    "iata" : "GUC",
    "lat" : 38.533901210000003,
    "name" : "Gunnison Crested Butte Regional Airport",
    "icao" : "KGUC",
    "lon" : -106.9329987
  },
  {
    "size" : 1,
    "iata" : "GUS",
    "lat" : 40.64810181,
    "name" : "Grissom Air Reserve Base",
    "icao" : "KGUS",
    "lon" : -86.152099609999993
  },
  {
    "size" : 3,
    "iata" : "HDN",
    "lat" : 40.481201169999999,
    "name" : "Yampa Valley Airport",
    "icao" : "KHDN",
    "lon" : -107.21800229999999
  },
  {
    "size" : 1,
    "iata" : "HIB",
    "lat" : 47.386600489999999,
    "name" : "Range Regional Airport",
    "icao" : "KHIB",
    "lon" : -92.838996890000004
  },
  {
    "size" : 2,
    "iata" : "HLN",
    "lat" : 46.606800079999999,
    "name" : "Helena Regional Airport",
    "icao" : "KHLN",
    "lon" : -111.9830017
  },
  {
    "size" : 1,
    "iata" : "HMN",
    "lat" : 32.852500919999997,
    "name" : "Holloman Air Force Base",
    "icao" : "KHMN",
    "lon" : -106.1070023
  },
  {
    "size" : 1,
    "iata" : "HOU",
    "lat" : 29.645399090000002,
    "name" : "William P Hobby Airport",
    "icao" : "KHOU",
    "lon" : -95.278900149999998
  },
  {
    "size" : 2,
    "iata" : "HPN",
    "lat" : 41.067001339999997,
    "name" : "Westchester County Airport",
    "icao" : "KHPN",
    "lon" : -73.707603449999993
  },
  {
    "size" : 2,
    "iata" : "HRL",
    "lat" : 26.228500369999999,
    "name" : "Valley International Airport",
    "icao" : "KHRL",
    "lon" : -97.654403689999995
  },
  {
    "size" : 1,
    "iata" : "HSV",
    "lat" : 34.6371994,
    "name" : "Huntsville International Carl T Jones Field",
    "icao" : "KHSV",
    "lon" : -86.775100710000004
  },
  {
    "size" : 1,
    "iata" : "HTS",
    "lat" : 38.366699220000001,
    "name" : "Tri-State/Milton J. Ferguson Field",
    "icao" : "KHTS",
    "lon" : -82.557998659999996
  },
  {
    "size" : 2,
    "iata" : "HYA",
    "lat" : 41.669300079999999,
    "name" : "Barnstable Municipal Boardman Polando Field",
    "icao" : "KHYA",
    "lon" : -70.280403140000004
  },
  {
    "size" : 1,
    "iata" : "IAD",
    "lat" : 38.944499970000003,
    "name" : "Washington Dulles International Airport",
    "icao" : "KIAD",
    "lon" : -77.455802919999996
  },
  {
    "size" : 2,
    "iata" : "IAG",
    "lat" : 43.1072998,
    "name" : "Niagara Falls International Airport",
    "icao" : "KIAG",
    "lon" : -78.946197510000005
  },
  {
    "size" : 0,
    "iata" : "IAH",
    "lat" : 29.984399799999998,
    "name" : "George Bush Intercontinental Houston Airport",
    "icao" : "KIAH",
    "lon" : -95.341400149999998
  },
  {
    "size" : 1,
    "iata" : "ICT",
    "lat" : 37.649898999999998,
    "name" : "Wichita Eisenhower National Airport",
    "icao" : "KICT",
    "lon" : -97.433098000000001
  },
  {
    "size" : 3,
    "iata" : "IFP",
    "lat" : 35.157398219999997,
    "name" : "Laughlin Bullhead International Airport",
    "icao" : "KIFP",
    "lon" : -114.5599976
  },
  {
    "size" : 2,
    "iata" : "ILM",
    "lat" : 34.270599369999999,
    "name" : "Wilmington International Airport",
    "icao" : "KILM",
    "lon" : -77.902603150000004
  },
  {
    "size" : 1,
    "iata" : "IND",
    "lat" : 39.717300000000002,
    "name" : "Indianapolis International Airport",
    "icao" : "KIND",
    "lon" : -86.294403000000003
  },
  {
    "size" : 2,
    "iata" : "ISP",
    "lat" : 40.795200350000002,
    "name" : "Long Island Mac Arthur Airport",
    "icao" : "KISP",
    "lon" : -73.100196839999995
  },
  {
    "size" : 2,
    "iata" : "AZA",
    "lat" : 33.307800290000003,
    "name" : "Phoenix-Mesa-Gateway Airport",
    "icao" : "KIWA",
    "lon" : -111.6549988
  },
  {
    "size" : 2,
    "iata" : "JAC",
    "lat" : 43.6072998,
    "name" : "Jackson Hole Airport",
    "icao" : "KJAC",
    "lon" : -110.737999
  },
  {
    "size" : 1,
    "iata" : "JAN",
    "lat" : 32.311199190000004,
    "name" : "Jackson-Medgar Wiley Evers International Airport",
    "icao" : "KJAN",
    "lon" : -90.075897220000002
  },
  {
    "size" : 1,
    "iata" : "JAX",
    "lat" : 30.494100570000001,
    "name" : "Jacksonville International Airport",
    "icao" : "KJAX",
    "lon" : -81.687896730000006
  },
  {
    "size" : 0,
    "iata" : "JFK",
    "lat" : 40.639800999999999,
    "name" : "John F Kennedy International Airport",
    "icao" : "KJFK",
    "lon" : -73.778899999999993
  },
  {
    "size" : 1,
    "iata" : "JLN",
    "lat" : 37.151798249999999,
    "name" : "Joplin Regional Airport",
    "icao" : "KJLN",
    "lon" : -94.498298649999995
  },
  {
    "size" : 0,
    "iata" : "LAS",
    "lat" : 36.08010101,
    "name" : "McCarran International Airport",
    "icao" : "KLAS",
    "lon" : -115.15200040000001
  },
  {
    "size" : 0,
    "iata" : "LAX",
    "lat" : 33.942501,
    "name" : "Los Angeles International Airport",
    "icao" : "KLAX",
    "lon" : -118.40799699999999
  },
  {
    "size" : 1,
    "iata" : "LBB",
    "lat" : 33.663601,
    "name" : "Lubbock Preston Smith International Airport",
    "icao" : "KLBB",
    "lon" : -101.822998
  },
  {
    "size" : 2,
    "iata" : "LCH",
    "lat" : 30.126100539999999,
    "name" : "Lake Charles Regional Airport",
    "icao" : "KLCH",
    "lon" : -93.223297119999998
  },
  {
    "size" : 1,
    "iata" : "LCK",
    "lat" : 39.813800999999998,
    "name" : "Rickenbacker International Airport",
    "icao" : "KLCK",
    "lon" : -82.927802999999997
  },
  {
    "size" : 1,
    "iata" : "LEX",
    "lat" : 38.036499020000001,
    "name" : "Blue Grass Airport",
    "icao" : "KLEX",
    "lon" : -84.60590363
  },
  {
    "size" : 1,
    "iata" : "LFI",
    "lat" : 37.082901,
    "name" : "Langley Air Force Base",
    "icao" : "KLFI",
    "lon" : -76.360496519999998
  },
  {
    "size" : 1,
    "iata" : "LFT",
    "lat" : 30.20529938,
    "name" : "Lafayette Regional Airport",
    "icao" : "KLFT",
    "lon" : -91.987602229999993
  },
  {
    "size" : 1,
    "iata" : "LGA",
    "lat" : 40.777199000000003,
    "name" : "La Guardia Airport",
    "icao" : "KLGA",
    "lon" : -73.872596999999999
  },
  {
    "size" : 2,
    "iata" : "LGB",
    "lat" : 33.817699429999998,
    "name" : "Long Beach /Daugherty Field/ Airport",
    "icao" : "KLGB",
    "lon" : -118.15200040000001
  },
  {
    "size" : 1,
    "iata" : "LIT",
    "lat" : 34.729400630000001,
    "name" : "Bill & Hillary Clinton National Airport/Adams Field",
    "icao" : "KLIT",
    "lon" : -92.224296570000007
  },
  {
    "size" : 2,
    "iata" : "LNK",
    "lat" : 40.851001740000001,
    "name" : "Lincoln Airport",
    "icao" : "KLNK",
    "lon" : -96.759201050000001
  },
  {
    "size" : 2,
    "iata" : "LRD",
    "lat" : 27.543800350000001,
    "name" : "Laredo International Airport",
    "icao" : "KLRD",
    "lon" : -99.461601259999995
  },
  {
    "size" : 1,
    "iata" : "LTS",
    "lat" : 34.667099,
    "name" : "Altus Air Force Base",
    "icao" : "KLTS",
    "lon" : -99.266700740000005
  },
  {
    "size" : 1,
    "iata" : "LUF",
    "lat" : 33.534999849999998,
    "name" : "Luke Air Force Base",
    "icao" : "KLUF",
    "lon" : -112.3830032
  },
  {
    "size" : 2,
    "iata" : "MAF",
    "lat" : 31.942499160000001,
    "name" : "Midland International Airport",
    "icao" : "KMAF",
    "lon" : -102.2020035
  },
  {
    "size" : 1,
    "iata" : "MBS",
    "lat" : 43.532901760000001,
    "name" : "MBS International Airport",
    "icao" : "KMBS",
    "lon" : -84.079597469999996
  },
  {
    "size" : 1,
    "iata" : "MCF",
    "lat" : 27.849300379999999,
    "name" : "Mac Dill Air Force Base",
    "icao" : "KMCF",
    "lon" : -82.521202090000003
  },
  {
    "size" : 1,
    "iata" : "MCI",
    "lat" : 39.297600000000003,
    "name" : "Kansas City International Airport",
    "icao" : "KMCI",
    "lon" : -94.713898
  },
  {
    "size" : 0,
    "iata" : "MCO",
    "lat" : 28.429399490000002,
    "name" : "Orlando International Airport",
    "icao" : "KMCO",
    "lon" : -81.308998110000005
  },
  {
    "size" : 2,
    "iata" : "MDT",
    "lat" : 40.193500520000001,
    "name" : "Harrisburg International Airport",
    "icao" : "KMDT",
    "lon" : -76.763397220000002
  },
  {
    "size" : 1,
    "iata" : "MDW",
    "lat" : 41.785998999999997,
    "name" : "Chicago Midway International Airport",
    "icao" : "KMDW",
    "lon" : -87.752403000000001
  },
  {
    "size" : 1,
    "iata" : "MEM",
    "lat" : 35.042400360000002,
    "name" : "Memphis International Airport",
    "icao" : "KMEM",
    "lon" : -89.976699830000001
  },
  {
    "size" : 2,
    "iata" : "MFE",
    "lat" : 26.17580032,
    "name" : "Mc Allen Miller International Airport",
    "icao" : "KMFE",
    "lon" : -98.238601680000002
  },
  {
    "size" : 2,
    "iata" : "MFR",
    "lat" : 42.374198909999997,
    "name" : "Rogue Valley International Medford Airport",
    "icao" : "KMFR",
    "lon" : -122.8730011
  },
  {
    "size" : 1,
    "iata" : "MGE",
    "lat" : 33.915401459999998,
    "name" : "Dobbins Air Reserve Base",
    "icao" : "KMGE",
    "lon" : -84.516296389999994
  },
  {
    "size" : 1,
    "iata" : "MGM",
    "lat" : 32.300598139999998,
    "name" : "Montgomery Regional (Dannelly Field) Airport",
    "icao" : "KMGM",
    "lon" : -86.393997189999993
  },
  {
    "size" : 1,
    "iata" : "MHT",
    "lat" : 42.932597999999999,
    "name" : "Manchester-Boston Regional Airport",
    "icao" : "KMHT",
    "lon" : -71.435699
  },
  {
    "size" : 0,
    "iata" : "MIA",
    "lat" : 25.79319954,
    "name" : "Miami International Airport",
    "icao" : "KMIA",
    "lon" : -80.29060364
  },
  {
    "size" : 1,
    "iata" : "MKE",
    "lat" : 42.947200780000003,
    "name" : "General Mitchell International Airport",
    "icao" : "KMKE",
    "lon" : -87.896598819999994
  },
  {
    "size" : 2,
    "iata" : "MLB",
    "lat" : 28.102800370000001,
    "name" : "Melbourne International Airport",
    "icao" : "KMLB",
    "lon" : -80.64530182
  },
  {
    "size" : 1,
    "iata" : "MLI",
    "lat" : 41.448501589999999,
    "name" : "Quad City International Airport",
    "icao" : "KMLI",
    "lon" : -90.507499690000003
  },
  {
    "size" : 1,
    "iata" : "MLU",
    "lat" : 32.510898589999996,
    "name" : "Monroe Regional Airport",
    "icao" : "KMLU",
    "lon" : -92.037696839999995
  },
  {
    "size" : 1,
    "iata" : "MOB",
    "lat" : 30.691200259999999,
    "name" : "Mobile Regional Airport",
    "icao" : "KMOB",
    "lon" : -88.242797850000002
  },
  {
    "size" : 1,
    "iata" : "MSN",
    "lat" : 43.13990021,
    "name" : "Dane County Regional Truax Field",
    "icao" : "KMSN",
    "lon" : -89.337501529999997
  },
  {
    "size" : 2,
    "iata" : "MSO",
    "lat" : 46.916301730000001,
    "name" : "Missoula International Airport",
    "icao" : "KMSO",
    "lon" : -114.09100340000001
  },
  {
    "size" : 1,
    "iata" : "MSP",
    "lat" : 44.881999999999998,
    "name" : "Minneapolis-St Paul International/Wold-Chamberlain Airport",
    "icao" : "KMSP",
    "lon" : -93.221801999999997
  },
  {
    "size" : 1,
    "iata" : "MSY",
    "lat" : 29.993400569999999,
    "name" : "Louis Armstrong New Orleans International Airport",
    "icao" : "KMSY",
    "lon" : -90.25800323
  },
  {
    "size" : 2,
    "iata" : "MTJ",
    "lat" : 38.509799960000002,
    "name" : "Montrose Regional Airport",
    "icao" : "KMTJ",
    "lon" : -107.8939972
  },
  {
    "size" : 1,
    "iata" : "MUO",
    "lat" : 43.043598000000003,
    "name" : "Mountain Home Air Force Base",
    "icao" : "KMUO",
    "lon" : -115.87200199999999
  },
  {
    "size" : 3,
    "iata" : "MVY",
    "lat" : 41.393100740000001,
    "name" : "Martha's Vineyard Airport",
    "icao" : "KMVY",
    "lon" : -70.614303590000006
  },
  {
    "size" : 2,
    "iata" : "MWH",
    "lat" : 47.207698819999997,
    "name" : "Grant County International Airport",
    "icao" : "KMWH",
    "lon" : -119.3199997
  },
  {
    "size" : 2,
    "iata" : "MYR",
    "lat" : 33.679698940000002,
    "name" : "Myrtle Beach International Airport",
    "icao" : "KMYR",
    "lon" : -78.928298949999999
  },
  {
    "size" : 1,
    "iata" : "OAK",
    "lat" : 37.721297999999997,
    "name" : "Metropolitan Oakland International Airport",
    "icao" : "KOAK",
    "lon" : -122.221001
  },
  {
    "size" : 1,
    "iata" : "OKC",
    "lat" : 35.393100740000001,
    "name" : "Will Rogers World Airport",
    "icao" : "KOKC",
    "lon" : -97.600700380000006
  },
  {
    "size" : 1,
    "iata" : "OMA",
    "lat" : 41.303199999999997,
    "name" : "Eppley Airfield",
    "icao" : "KOMA",
    "lon" : -95.894096000000005
  },
  {
    "size" : 1,
    "iata" : "ONT",
    "lat" : 34.055999759999999,
    "name" : "Ontario International Airport",
    "icao" : "KONT",
    "lon" : -117.6009979
  },
  {
    "size" : 0,
    "iata" : "ORD",
    "lat" : 41.9786,
    "name" : "Chicago O'Hare International Airport",
    "icao" : "KORD",
    "lon" : -87.904799999999994
  },
  {
    "size" : 1,
    "iata" : "ORF",
    "lat" : 36.894599909999997,
    "name" : "Norfolk International Airport",
    "icao" : "KORF",
    "lon" : -76.201202390000006
  },
  {
    "size" : 2,
    "iata" : "ORH",
    "lat" : 42.267299649999998,
    "name" : "Worcester Regional Airport",
    "icao" : "KORH",
    "lon" : -71.875701899999996
  },
  {
    "size" : 2,
    "iata" : "PAE",
    "lat" : 47.906299590000003,
    "name" : "Snohomish County (Paine Field) Airport",
    "icao" : "KPAE",
    "lon" : -122.28199770000001
  },
  {
    "size" : 1,
    "iata" : "PAM",
    "lat" : 30.069599149999998,
    "name" : "Tyndall Air Force Base",
    "icao" : "KPAM",
    "lon" : -85.575401310000004
  },
  {
    "size" : 2,
    "iata" : "PBG",
    "lat" : 44.650901789999999,
    "name" : "Plattsburgh International Airport",
    "icao" : "KPBG",
    "lon" : -73.468101500000003
  },
  {
    "size" : 1,
    "iata" : "PBI",
    "lat" : 26.683200840000001,
    "name" : "Palm Beach International Airport",
    "icao" : "KPBI",
    "lon" : -80.095596310000005
  },
  {
    "size" : 1,
    "iata" : "PDX",
    "lat" : 45.588699339999998,
    "name" : "Portland International Airport",
    "icao" : "KPDX",
    "lon" : -122.59799959999999
  },
  {
    "size" : 1,
    "iata" : "PHF",
    "lat" : 37.131900790000003,
    "name" : "Newport News Williamsburg International Airport",
    "icao" : "KPHF",
    "lon" : -76.492996219999995
  },
  {
    "size" : 1,
    "iata" : "PHL",
    "lat" : 39.871898649999999,
    "name" : "Philadelphia International Airport",
    "icao" : "KPHL",
    "lon" : -75.241096499999998
  },
  {
    "size" : 0,
    "iata" : "PHX",
    "lat" : 33.434299469999999,
    "name" : "Phoenix Sky Harbor International Airport",
    "icao" : "KPHX",
    "lon" : -112.012001
  },
  {
    "size" : 1,
    "iata" : "PIA",
    "lat" : 40.664199830000001,
    "name" : "General Wayne A. Downing Peoria International Airport",
    "icao" : "KPIA",
    "lon" : -89.693298339999998
  },
  {
    "size" : 2,
    "iata" : "PIE",
    "lat" : 27.910200119999999,
    "name" : "St Petersburg Clearwater International Airport",
    "icao" : "KPIE",
    "lon" : -82.687400819999993
  },
  {
    "size" : 2,
    "iata" : "PIH",
    "lat" : 42.909801479999999,
    "name" : "Pocatello Regional Airport",
    "icao" : "KPIH",
    "lon" : -112.5960007
  },
  {
    "size" : 1,
    "iata" : "PIT",
    "lat" : 40.491500850000001,
    "name" : "Pittsburgh International Airport",
    "icao" : "KPIT",
    "lon" : -80.232902530000004
  },
  {
    "size" : 2,
    "iata" : "PNS",
    "lat" : 30.473400000000002,
    "name" : "Pensacola International Airport",
    "icao" : "KPNS",
    "lon" : -87.186599999999999
  },
  {
    "size" : 2,
    "iata" : "PSC",
    "lat" : 46.264701840000001,
    "name" : "Tri Cities Airport",
    "icao" : "KPSC",
    "lon" : -119.1190033
  },
  {
    "size" : 2,
    "iata" : "PSM",
    "lat" : 43.077899930000001,
    "name" : "Portsmouth International at Pease Airport",
    "icao" : "KPSM",
    "lon" : -70.82330322
  },
  {
    "size" : 2,
    "iata" : "PSP",
    "lat" : 33.829700469999999,
    "name" : "Palm Springs International Airport",
    "icao" : "KPSP",
    "lon" : -116.50700380000001
  },
  {
    "size" : 3,
    "iata" : "PUB",
    "lat" : 38.289100650000002,
    "name" : "Pueblo Memorial Airport",
    "icao" : "KPUB",
    "lon" : -104.4970016
  },
  {
    "size" : 1,
    "iata" : "PVD",
    "lat" : 41.732601000000003,
    "name" : "Theodore Francis Green State Airport",
    "icao" : "KPVD",
    "lon" : -71.420402999999993
  },
  {
    "size" : 2,
    "iata" : "PVU",
    "lat" : 40.219200129999997,
    "name" : "Provo Municipal Airport",
    "icao" : "KPVU",
    "lon" : -111.72299959999999
  },
  {
    "size" : 1,
    "iata" : "PWM",
    "lat" : 43.646197999999998,
    "name" : "Portland International Jetport",
    "icao" : "KPWM",
    "lon" : -70.309303
  },
  {
    "size" : 2,
    "iata" : "RAP",
    "lat" : 44.045299530000001,
    "name" : "Rapid City Regional Airport",
    "icao" : "KRAP",
    "lon" : -103.05699920000001
  },
  {
    "size" : 1,
    "iata" : "RDU",
    "lat" : 35.87760162,
    "name" : "Raleigh Durham International Airport",
    "icao" : "KRDU",
    "lon" : -78.787498470000003
  },
  {
    "size" : 1,
    "iata" : "RFD",
    "lat" : 42.195400239999998,
    "name" : "Chicago Rockford International Airport",
    "icao" : "KRFD",
    "lon" : -89.097198489999997
  },
  {
    "size" : 1,
    "iata" : "RIC",
    "lat" : 37.505199429999998,
    "name" : "Richmond International Airport",
    "icao" : "KRIC",
    "lon" : -77.319702149999998
  },
  {
    "size" : 1,
    "iata" : "RND",
    "lat" : 29.52969933,
    "name" : "Randolph Air Force Base",
    "icao" : "KRND",
    "lon" : -98.278900149999998
  },
  {
    "size" : 1,
    "iata" : "RNO",
    "lat" : 39.499099729999998,
    "name" : "Reno Tahoe International Airport",
    "icao" : "KRNO",
    "lon" : -119.7679977
  },
  {
    "size" : 1,
    "iata" : "ROA",
    "lat" : 37.325499999999998,
    "name" : "Roanoke–Blacksburg Regional Airport",
    "icao" : "KROA",
    "lon" : -79.975403
  },
  {
    "size" : 1,
    "iata" : "ROC",
    "lat" : 43.1189003,
    "name" : "Greater Rochester International Airport",
    "icao" : "KROC",
    "lon" : -77.672401429999994
  },
  {
    "size" : 2,
    "iata" : "ROW",
    "lat" : 33.301600999999998,
    "name" : "Roswell Air Center Airport",
    "icao" : "KROW",
    "lon" : -104.530998
  },
  {
    "size" : 1,
    "iata" : "RST",
    "lat" : 43.90829849,
    "name" : "Rochester International Airport",
    "icao" : "KRST",
    "lon" : -92.5
  },
  {
    "size" : 1,
    "iata" : "RSW",
    "lat" : 26.536199570000001,
    "name" : "Southwest Florida International Airport",
    "icao" : "KRSW",
    "lon" : -81.755203249999994
  },
  {
    "size" : 1,
    "iata" : "SAN",
    "lat" : 32.733600619999997,
    "name" : "San Diego International Airport",
    "icao" : "KSAN",
    "lon" : -117.1900024
  },
  {
    "size" : 1,
    "iata" : "SAT",
    "lat" : 29.533701000000001,
    "name" : "San Antonio International Airport",
    "icao" : "KSAT",
    "lon" : -98.469802999999999
  },
  {
    "size" : 1,
    "iata" : "SAV",
    "lat" : 32.12760162,
    "name" : "Savannah Hilton Head International Airport",
    "icao" : "KSAV",
    "lon" : -81.202102659999994
  },
  {
    "size" : 2,
    "iata" : "SBA",
    "lat" : 34.426200870000002,
    "name" : "Santa Barbara Municipal Airport",
    "icao" : "KSBA",
    "lon" : -119.8399963
  },
  {
    "size" : 1,
    "iata" : "SBN",
    "lat" : 41.708698269999999,
    "name" : "South Bend Regional Airport",
    "icao" : "KSBN",
    "lon" : -86.317298890000004
  },
  {
    "size" : 1,
    "iata" : "SDF",
    "lat" : 38.174399999999999,
    "name" : "Louisville Muhammad Ali International Airport",
    "icao" : "KSDF",
    "lon" : -85.736000000000004
  },
  {
    "size" : 0,
    "iata" : "SEA",
    "lat" : 47.449001000000003,
    "name" : "Seattle Tacoma International Airport",
    "icao" : "KSEA",
    "lon" : -122.308998
  },
  {
    "size" : 1,
    "iata" : "SFB",
    "lat" : 28.777599330000001,
    "name" : "Orlando Sanford International Airport",
    "icao" : "KSFB",
    "lon" : -81.237503050000001
  },
  {
    "size" : 0,
    "iata" : "SFO",
    "lat" : 37.618999479999999,
    "name" : "San Francisco International Airport",
    "icao" : "KSFO",
    "lon" : -122.375
  },
  {
    "size" : 1,
    "iata" : "SGF",
    "lat" : 37.245700839999998,
    "name" : "Springfield Branson National Airport",
    "icao" : "KSGF",
    "lon" : -93.388603209999999
  },
  {
    "size" : 2,
    "iata" : "SHV",
    "lat" : 32.446601999999999,
    "name" : "Shreveport Regional Airport",
    "icao" : "KSHV",
    "lon" : -93.825599999999994
  },
  {
    "size" : 1,
    "iata" : "SJC",
    "lat" : 37.362597999999998,
    "name" : "Norman Y. Mineta San Jose International Airport",
    "icao" : "KSJC",
    "lon" : -121.929001
  },
  {
    "size" : 1,
    "iata" : "SKA",
    "lat" : 47.615100859999998,
    "name" : "Fairchild Air Force Base",
    "icao" : "KSKA",
    "lon" : -117.6559982
  },
  {
    "size" : 1,
    "iata" : "SLC",
    "lat" : 40.788398739999998,
    "name" : "Salt Lake City International Airport",
    "icao" : "KSLC",
    "lon" : -111.9779968
  },
  {
    "size" : 1,
    "iata" : "SMF",
    "lat" : 38.695400239999998,
    "name" : "Sacramento International Airport",
    "icao" : "KSMF",
    "lon" : -121.59100340000001
  },
  {
    "size" : 1,
    "iata" : "SNA",
    "lat" : 33.675701140000001,
    "name" : "John Wayne Airport-Orange County Airport",
    "icao" : "KSNA",
    "lon" : -117.86799619999999
  },
  {
    "size" : 1,
    "iata" : "SPI",
    "lat" : 39.844100949999998,
    "name" : "Abraham Lincoln Capital Airport",
    "icao" : "KSPI",
    "lon" : -89.677902220000007
  },
  {
    "size" : 1,
    "iata" : "SPS",
    "lat" : 33.988799999999998,
    "name" : "Sheppard Air Force Base-Wichita Falls Municipal Airport",
    "icao" : "KSPS",
    "lon" : -98.491898000000006
  },
  {
    "size" : 1,
    "iata" : "SRQ",
    "lat" : 27.395399090000002,
    "name" : "Sarasota Bradenton International Airport",
    "icao" : "KSRQ",
    "lon" : -82.55439758
  },
  {
    "size" : 1,
    "iata" : "SSC",
    "lat" : 33.972698209999997,
    "name" : "Shaw Air Force Base",
    "icao" : "KSSC",
    "lon" : -80.470596310000005
  },
  {
    "size" : 1,
    "iata" : "STL",
    "lat" : 38.748697,
    "name" : "St Louis Lambert International Airport",
    "icao" : "KSTL",
    "lon" : -90.370002999999997
  },
  {
    "size" : 1,
    "iata" : "SUS",
    "lat" : 38.662101749999998,
    "name" : "Spirit of St Louis Airport",
    "icao" : "KSUS",
    "lon" : -90.652000430000001
  },
  {
    "size" : 1,
    "iata" : "SUU",
    "lat" : 38.262699130000001,
    "name" : "Travis Air Force Base",
    "icao" : "KSUU",
    "lon" : -121.927002
  },
  {
    "size" : 1,
    "iata" : "SUX",
    "lat" : 42.402599000000002,
    "name" : "Sioux Gateway Airport/Brigadier General Bud Day Field",
    "icao" : "KSUX",
    "lon" : -96.384399000000002
  },
  {
    "size" : 2,
    "iata" : "SWF",
    "lat" : 41.504100999999999,
    "name" : "New York Stewart International Airport",
    "icao" : "KSWF",
    "lon" : -74.104797000000005
  },
  {
    "size" : 1,
    "iata" : "SYR",
    "lat" : 43.111198430000002,
    "name" : "Syracuse Hancock International Airport",
    "icao" : "KSYR",
    "lon" : -76.106300349999998
  },
  {
    "size" : 1,
    "iata" : "SZL",
    "lat" : 38.730300900000003,
    "name" : "Whiteman Air Force Base",
    "icao" : "KSZL",
    "lon" : -93.547897340000006
  },
  {
    "size" : 1,
    "iata" : "TCM",
    "lat" : 47.137699130000001,
    "name" : "McChord Air Force Base",
    "icao" : "KTCM",
    "lon" : -122.4759979
  },
  {
    "size" : 1,
    "iata" : "TIK",
    "lat" : 35.414699550000002,
    "name" : "Tinker Air Force Base",
    "icao" : "KTIK",
    "lon" : -97.386596679999997
  },
  {
    "size" : 1,
    "iata" : "TLH",
    "lat" : 30.396499630000001,
    "name" : "Tallahassee Regional Airport",
    "icao" : "KTLH",
    "lon" : -84.350303650000001
  },
  {
    "size" : 1,
    "iata" : "TOL",
    "lat" : 41.586799620000001,
    "name" : "Toledo Express Airport",
    "icao" : "KTOL",
    "lon" : -83.807800290000003
  },
  {
    "size" : 1,
    "iata" : "TPA",
    "lat" : 27.975500109999999,
    "name" : "Tampa International Airport",
    "icao" : "KTPA",
    "lon" : -82.533203130000004
  },
  {
    "size" : 1,
    "iata" : "TRI",
    "lat" : 36.475200999999998,
    "name" : "Tri-Cities Regional TN/VA Airport",
    "icao" : "KTRI",
    "lon" : -82.407400999999993
  },
  {
    "size" : 1,
    "iata" : "TUL",
    "lat" : 36.198398589999996,
    "name" : "Tulsa International Airport",
    "icao" : "KTUL",
    "lon" : -95.888099670000003
  },
  {
    "size" : 1,
    "iata" : "TUS",
    "lat" : 32.115003999999999,
    "name" : "Tucson International Airport / Morris Air National Guard Base",
    "icao" : "KTUS",
    "lon" : -110.938053
  },
  {
    "size" : 2,
    "iata" : "TWF",
    "lat" : 42.4818,
    "name" : "Joslin Field Magic Valley Regional Airport",
    "icao" : "KTWF",
    "lon" : -114.487999
  },
  {
    "size" : 1,
    "iata" : "TYS",
    "lat" : 35.811000819999997,
    "name" : "McGhee Tyson Airport",
    "icao" : "KTYS",
    "lon" : -83.994003300000003
  },
  {
    "size" : 1,
    "iata" : "VBG",
    "lat" : 34.737300869999999,
    "name" : "Vandenberg Air Force Base",
    "icao" : "KVBG",
    "lon" : -120.5839996
  },
  {
    "size" : 1,
    "iata" : "VPS",
    "lat" : 30.4832,
    "name" : "Destin-Ft Walton Beach Airport",
    "icao" : "KVPS",
    "lon" : -86.525397999999996
  },
  {
    "size" : 1,
    "iata" : "WRB",
    "lat" : 32.640098569999999,
    "name" : "Robins Air Force Base",
    "icao" : "KWRB",
    "lon" : -83.591903689999995
  },
  {
    "size" : 2,
    "iata" : "XNA",
    "lat" : 36.281897999999998,
    "name" : "Northwest Arkansas Regional Airport",
    "icao" : "KXNA",
    "lon" : -94.306800999999993
  },
  {
    "size" : 2,
    "iata" : "YKM",
    "lat" : 46.568199159999999,
    "name" : "Yakima Air Terminal McAllister Field",
    "icao" : "KYKM",
    "lon" : -120.5439987
  },
  {
    "size" : 1,
    "iata" : "TIA",
    "lat" : 41.414699550000002,
    "name" : "Tirana International Airport Mother Teresa",
    "icao" : "LATI",
    "lon" : 19.720600130000001
  },
  {
    "size" : 1,
    "iata" : "BOJ",
    "lat" : 42.569599150000002,
    "name" : "Burgas Airport",
    "icao" : "LBBG",
    "lon" : 27.51519966
  },
  {
    "size" : 1,
    "iata" : "SOF",
    "lat" : 42.696693420000003,
    "name" : "Sofia Airport",
    "icao" : "LBSF",
    "lon" : 23.411436080000001
  },
  {
    "size" : 1,
    "iata" : "VAR",
    "lat" : 43.232101,
    "name" : "Varna Airport",
    "icao" : "LBWN",
    "lon" : 27.825099999999999
  },
  {
    "size" : 1,
    "iata" : "LCA",
    "lat" : 34.875099179999999,
    "name" : "Larnaca International Airport",
    "icao" : "LCLK",
    "lon" : 33.624900820000001
  },
  {
    "size" : 1,
    "iata" : "PFO",
    "lat" : 34.7179985,
    "name" : "Paphos International Airport",
    "icao" : "LCPH",
    "lon" : 32.4856987
  },
  {
    "size" : 1,
    "iata" : "AKT",
    "lat" : 34.590401,
    "name" : "RAF Akrotiri",
    "icao" : "LCRA",
    "lon" : 32.987900000000003
  },
  {
    "size" : 2,
    "iata" : "SPU",
    "lat" : 43.538898469999999,
    "name" : "Split Airport",
    "icao" : "LDSP",
    "lon" : 16.298000340000002
  },
  {
    "size" : 1,
    "iata" : "ZAG",
    "lat" : 45.742900849999998,
    "name" : "Zagreb Airport",
    "icao" : "LDZA",
    "lon" : 16.068799970000001
  },
  {
    "size" : 1,
    "iata" : "ALC",
    "lat" : 38.282199859999999,
    "name" : "Alicante International Airport",
    "icao" : "LEAL",
    "lon" : -0.55815601299999995
  },
  {
    "size" : 2,
    "iata" : "BIO",
    "lat" : 43.301101680000002,
    "name" : "Bilbao Airport",
    "icao" : "LEBB",
    "lon" : -2.910609961
  },
  {
    "size" : 0,
    "iata" : "BCN",
    "lat" : 41.2971,
    "name" : "Barcelona International Airport",
    "icao" : "LEBL",
    "lon" : 2.0784600000000002
  },
  {
    "size" : 2,
    "iata" : "GRO",
    "lat" : 41.901000979999999,
    "name" : "Girona Airport",
    "icao" : "LEGE",
    "lon" : 2.7605500219999999
  },
  {
    "size" : 0,
    "iata" : "MAD",
    "lat" : 40.471926000000003,
    "name" : "Adolfo Suárez Madrid–Barajas Airport",
    "icao" : "LEMD",
    "lon" : -3.56264
  },
  {
    "size" : 1,
    "iata" : "AGP",
    "lat" : 36.674900049999998,
    "name" : "Málaga Airport",
    "icao" : "LEMG",
    "lon" : -4.4991102219999997
  },
  {
    "size" : 1,
    "iata" : "PMI",
    "lat" : 39.551700590000003,
    "name" : "Palma De Mallorca Airport",
    "icao" : "LEPA",
    "lon" : 2.7388100620000002
  },
  {
    "size" : 1,
    "iata" : "SCQ",
    "lat" : 42.896301270000002,
    "name" : "Santiago de Compostela Airport",
    "icao" : "LEST",
    "lon" : -8.4151401519999993
  },
  {
    "size" : 2,
    "iata" : "VLC",
    "lat" : 39.4893,
    "name" : "Valencia Airport",
    "icao" : "LEVC",
    "lon" : -0.48162500000000003
  },
  {
    "size" : 2,
    "iata" : "ZAZ",
    "lat" : 41.666198729999998,
    "name" : "Zaragoza Air Base",
    "icao" : "LEZG",
    "lon" : -1.04155004
  },
  {
    "size" : 1,
    "iata" : "BOD",
    "lat" : 44.828300480000003,
    "name" : "Bordeaux-Mérignac Airport",
    "icao" : "LFBD",
    "lon" : -0.71555602600000001
  },
  {
    "size" : 1,
    "iata" : "TLS",
    "lat" : 43.629100999999999,
    "name" : "Toulouse-Blagnac Airport",
    "icao" : "LFBO",
    "lon" : 1.36382
  },
  {
    "size" : 1,
    "iata" : "LYS",
    "lat" : 45.725555999999997,
    "name" : "Lyon Saint-Exupéry Airport",
    "icao" : "LFLL",
    "lon" : 5.0811109999999999
  },
  {
    "size" : 1,
    "iata" : "MRS",
    "lat" : 43.439271920000003,
    "name" : "Marseille Provence Airport",
    "icao" : "LFML",
    "lon" : 5.2214241030000004
  },
  {
    "size" : 1,
    "iata" : "NCE",
    "lat" : 43.658401490000003,
    "name" : "Nice-Côte d'Azur Airport",
    "icao" : "LFMN",
    "lon" : 7.2158699039999998
  },
  {
    "size" : 1,
    "iata" : "",
    "lat" : 47.053299000000003,
    "name" : "Avord (BA 702) Air Base",
    "icao" : "LFOA",
    "lon" : 2.6324999999999998
  },
  {
    "size" : 0,
    "iata" : "CDG",
    "lat" : 49.012797999999997,
    "name" : "Charles de Gaulle International Airport",
    "icao" : "LFPG",
    "lon" : 2.5499999999999998
  },
  {
    "size" : 1,
    "iata" : "ORY",
    "lat" : 48.7233333,
    "name" : "Paris-Orly Airport",
    "icao" : "LFPO",
    "lon" : 2.3794444000000001
  },
  {
    "size" : 2,
    "iata" : "BES",
    "lat" : 48.447898860000002,
    "name" : "Brest Bretagne Airport",
    "icao" : "LFRB",
    "lon" : -4.4185400010000002
  },
  {
    "size" : 1,
    "iata" : "BSL",
    "lat" : 47.590000000000003,
    "name" : "EuroAirport Basel-Mulhouse-Freiburg Airport",
    "icao" : "LFSB",
    "lon" : 7.5291670000000002
  },
  {
    "size" : 1,
    "iata" : "ATH",
    "lat" : 37.936401369999999,
    "name" : "Eleftherios Venizelos International Airport",
    "icao" : "LGAV",
    "lon" : 23.944499969999999
  },
  {
    "size" : 1,
    "iata" : "HER",
    "lat" : 35.33969879,
    "name" : "Heraklion International Nikos Kazantzakis Airport",
    "icao" : "LGIR",
    "lon" : 25.18029976
  },
  {
    "size" : 2,
    "iata" : "CFU",
    "lat" : 39.60189819,
    "name" : "Ioannis Kapodistrias International Airport",
    "icao" : "LGKR",
    "lon" : 19.911699299999999
  },
  {
    "size" : 1,
    "iata" : "SKG",
    "lat" : 40.519699099999997,
    "name" : "Thessaloniki Macedonia International Airport",
    "icao" : "LGTS",
    "lon" : 22.970899580000001
  },
  {
    "size" : 1,
    "iata" : "BUD",
    "lat" : 47.429760000000002,
    "name" : "Budapest Liszt Ferenc International Airport",
    "icao" : "LHBP",
    "lon" : 19.261092999999999
  },
  {
    "size" : 1,
    "iata" : "BRI",
    "lat" : 41.138900999999997,
    "name" : "Bari Karol Wojtyła Airport",
    "icao" : "LIBD",
    "lon" : 16.760598999999999
  },
  {
    "size" : 2,
    "iata" : "BDS",
    "lat" : 40.657600000000002,
    "name" : "Brindisi – Salento Airport",
    "icao" : "LIBR",
    "lon" : 17.947001
  },
  {
    "size" : 1,
    "iata" : "CTA",
    "lat" : 37.466800999999997,
    "name" : "Catania-Fontanarossa Airport",
    "icao" : "LICC",
    "lon" : 15.0664
  },
  {
    "size" : 1,
    "iata" : "PMO",
    "lat" : 38.175998999999997,
    "name" : "Falcone–Borsellino Airport",
    "icao" : "LICJ",
    "lon" : 13.090999999999999
  },
  {
    "size" : 1,
    "iata" : "CAG",
    "lat" : 39.251499000000003,
    "name" : "Cagliari Elmas Airport",
    "icao" : "LIEE",
    "lon" : 9.0542800000000003
  },
  {
    "size" : 1,
    "iata" : "MXP",
    "lat" : 45.630600000000001,
    "name" : "Malpensa International Airport",
    "icao" : "LIMC",
    "lon" : 8.7281099999999991
  },
  {
    "size" : 1,
    "iata" : "BGY",
    "lat" : 45.673901000000001,
    "name" : "Milan Bergamo Airport",
    "icao" : "LIME",
    "lon" : 9.7041699999999995
  },
  {
    "size" : 1,
    "iata" : "TRN",
    "lat" : 45.200802000000003,
    "name" : "Turin Airport",
    "icao" : "LIMF",
    "lon" : 7.6496300000000002
  },
  {
    "size" : 1,
    "iata" : "GOA",
    "lat" : 44.4133,
    "name" : "Genoa Cristoforo Colombo Airport",
    "icao" : "LIMJ",
    "lon" : 8.8375000000000004
  },
  {
    "size" : 1,
    "iata" : "LIN",
    "lat" : 45.445098999999999,
    "name" : "Milano Linate Airport",
    "icao" : "LIML",
    "lon" : 9.2767400000000002
  },
  {
    "size" : 1,
    "iata" : "BLQ",
    "lat" : 44.535400000000003,
    "name" : "Bologna Guglielmo Marconi Airport",
    "icao" : "LIPE",
    "lon" : 11.2887
  },
  {
    "size" : 1,
    "iata" : "TSF",
    "lat" : 45.648398999999998,
    "name" : "Treviso-Sant'Angelo Airport",
    "icao" : "LIPH",
    "lon" : 12.1944
  },
  {
    "size" : 2,
    "iata" : "TRS",
    "lat" : 45.827499000000003,
    "name" : "Trieste–Friuli Venezia Giulia Airport",
    "icao" : "LIPQ",
    "lon" : 13.472200000000001
  },
  {
    "size" : 1,
    "iata" : "VRN",
    "lat" : 45.395699,
    "name" : "Verona Villafranca Airport",
    "icao" : "LIPX",
    "lon" : 10.888500000000001
  },
  {
    "size" : 1,
    "iata" : "VCE",
    "lat" : 45.505299000000001,
    "name" : "Venice Marco Polo Airport",
    "icao" : "LIPZ",
    "lon" : 12.351900000000001
  },
  {
    "size" : 1,
    "iata" : "CIA",
    "lat" : 41.799399999999999,
    "name" : "Ciampino–G. B. Pastine International Airport",
    "icao" : "LIRA",
    "lon" : 12.594900000000001
  },
  {
    "size" : 1,
    "iata" : "FCO",
    "lat" : 41.800277800000003,
    "name" : "Leonardo da Vinci–Fiumicino Airport",
    "icao" : "LIRF",
    "lon" : 12.238888899999999
  },
  {
    "size" : 1,
    "iata" : "NAP",
    "lat" : 40.886001999999998,
    "name" : "Naples International Airport",
    "icao" : "LIRN",
    "lon" : 14.290800000000001
  },
  {
    "size" : 1,
    "iata" : "PSA",
    "lat" : 43.683898999999997,
    "name" : "Pisa International Airport",
    "icao" : "LIRP",
    "lon" : 10.3927
  },
  {
    "size" : 1,
    "iata" : "LJU",
    "lat" : 46.223700999999998,
    "name" : "Ljubljana Jože Pučnik Airport",
    "icao" : "LJLJ",
    "lon" : 14.457599999999999
  },
  {
    "size" : 1,
    "iata" : "PRG",
    "lat" : 50.1008,
    "name" : "Václav Havel Airport Prague",
    "icao" : "LKPR",
    "lon" : 14.26
  },
  {
    "size" : 0,
    "iata" : "TLV",
    "lat" : 32.011398319999998,
    "name" : "Ben Gurion International Airport",
    "icao" : "LLBG",
    "lon" : 34.88669968
  },
  {
    "size" : 1,
    "iata" : "VDA",
    "lat" : 29.94029999,
    "name" : "Ovda International Airport",
    "icao" : "LLOV",
    "lon" : 34.935798650000002
  },
  {
    "size" : 1,
    "iata" : "MLA",
    "lat" : 35.857498,
    "name" : "Malta International Airport",
    "icao" : "LMML",
    "lon" : 14.477499999999999
  },
  {
    "size" : 1,
    "iata" : "VIE",
    "lat" : 48.110298159999999,
    "name" : "Vienna International Airport",
    "icao" : "LOWW",
    "lon" : 16.56970024
  },
  {
    "size" : 2,
    "iata" : "SMA",
    "lat" : 36.971401210000003,
    "name" : "Santa Maria Airport",
    "icao" : "LPAZ",
    "lon" : -25.170600889999999
  },
  {
    "size" : 1,
    "iata" : "FAO",
    "lat" : 37.014400479999999,
    "name" : "Faro Airport",
    "icao" : "LPFR",
    "lon" : -7.9659099580000001
  },
  {
    "size" : 1,
    "iata" : "TER",
    "lat" : 38.761799000000003,
    "name" : "Lajes Airport",
    "icao" : "LPLA",
    "lon" : -27.090799000000001
  },
  {
    "size" : 1,
    "iata" : "PDL",
    "lat" : 37.74119949,
    "name" : "João Paulo II Airport",
    "icao" : "LPPD",
    "lon" : -25.69790077
  },
  {
    "size" : 1,
    "iata" : "OPO",
    "lat" : 41.248100280000003,
    "name" : "Francisco de Sá Carneiro Airport",
    "icao" : "LPPR",
    "lon" : -8.6813898090000006
  },
  {
    "size" : 1,
    "iata" : "LIS",
    "lat" : 38.781300000000002,
    "name" : "Humberto Delgado Airport (Lisbon Portela Airport)",
    "icao" : "LPPT",
    "lon" : -9.1359200000000005
  },
  {
    "size" : 1,
    "iata" : "SJJ",
    "lat" : 43.824600220000001,
    "name" : "Sarajevo International Airport",
    "icao" : "LQSA",
    "lon" : 18.331499099999998
  },
  {
    "size" : 1,
    "iata" : "OTP",
    "lat" : 44.571111100000003,
    "name" : "Henri Coandă International Airport",
    "icao" : "LROP",
    "lon" : 26.085000000000001
  },
  {
    "size" : 1,
    "iata" : "GVA",
    "lat" : 46.238098139999998,
    "name" : "Geneva Cointrin International Airport",
    "icao" : "LSGG",
    "lon" : 6.108950138
  },
  {
    "size" : 1,
    "iata" : "ZRH",
    "lat" : 47.464699000000003,
    "name" : "Zürich Airport",
    "icao" : "LSZH",
    "lon" : 8.5491700000000002
  },
  {
    "size" : 1,
    "iata" : "ESB",
    "lat" : 40.128101350000001,
    "name" : "Esenboğa International Airport",
    "icao" : "LTAC",
    "lon" : 32.995098110000001
  },
  {
    "size" : 1,
    "iata" : "ADA",
    "lat" : 36.98220062,
    "name" : "Adana Airport",
    "icao" : "LTAF",
    "lon" : 35.280399320000001
  },
  {
    "size" : 1,
    "iata" : "AYT",
    "lat" : 36.898701000000003,
    "name" : "Antalya International Airport",
    "icao" : "LTAI",
    "lon" : 30.800501000000001
  },
  {
    "size" : 1,
    "iata" : "GZT",
    "lat" : 36.947200780000003,
    "name" : "Gaziantep International Airport",
    "icao" : "LTAJ",
    "lon" : 37.478698729999998
  },
  {
    "size" : 1,
    "iata" : "ISL",
    "lat" : 40.976897999999998,
    "name" : "Atatürk International Airport",
    "icao" : "LTBA",
    "lon" : 28.814599999999999
  },
  {
    "size" : 1,
    "iata" : "ADB",
    "lat" : 38.292400360000002,
    "name" : "Adnan Menderes International Airport",
    "icao" : "LTBJ",
    "lon" : 27.156999590000002
  },
  {
    "size" : 1,
    "iata" : "DLM",
    "lat" : 36.713100429999997,
    "name" : "Dalaman International Airport",
    "icao" : "LTBS",
    "lon" : 28.792499540000001
  },
  {
    "size" : 1,
    "iata" : "ERZ",
    "lat" : 39.956501009999997,
    "name" : "Erzurum International Airport",
    "icao" : "LTCE",
    "lon" : 41.170200350000002
  },
  {
    "size" : 1,
    "iata" : "TZX",
    "lat" : 40.995098110000001,
    "name" : "Trabzon International Airport",
    "icao" : "LTCG",
    "lon" : 39.789699550000002
  },
  {
    "size" : 1,
    "iata" : "ISE",
    "lat" : 37.855400090000003,
    "name" : "Süleyman Demirel International Airport",
    "icao" : "LTFC",
    "lon" : 30.368400569999999
  },
  {
    "size" : 1,
    "iata" : "BJV",
    "lat" : 37.250598910000001,
    "name" : "Milas Bodrum International Airport",
    "icao" : "LTFE",
    "lon" : 27.664300919999999
  },
  {
    "size" : 1,
    "iata" : "SAW",
    "lat" : 40.898601530000001,
    "name" : "Sabiha Gökçen International Airport",
    "icao" : "LTFJ",
    "lon" : 29.30920029
  },
  {
    "size" : 0,
    "iata" : "IST",
    "lat" : 41.275278,
    "name" : "Istanbul Airport",
    "icao" : "LTFM",
    "lon" : 28.751944000000002
  },
  {
    "size" : 1,
    "iata" : "SKP",
    "lat" : 41.961601000000002,
    "name" : "Skopje International Airport",
    "icao" : "LWSK",
    "lon" : 21.621400999999999
  },
  {
    "size" : 1,
    "iata" : "BEG",
    "lat" : 44.818401340000001,
    "name" : "Belgrade Nikola Tesla Airport",
    "icao" : "LYBE",
    "lon" : 20.309099199999999
  },
  {
    "size" : 1,
    "iata" : "TGD",
    "lat" : 42.359402000000003,
    "name" : "Podgorica Airport",
    "icao" : "LYPG",
    "lon" : 19.251899999999999
  },
  {
    "size" : 1,
    "iata" : "BTS",
    "lat" : 48.170200350000002,
    "name" : "M. R. Štefánik Airport",
    "icao" : "LZIB",
    "lon" : 17.21269989
  },
  {
    "size" : 2,
    "iata" : "GDT",
    "lat" : 21.444499969999999,
    "name" : "JAGS McCartney International Airport",
    "icao" : "MBGT",
    "lon" : -71.142303470000002
  },
  {
    "size" : 2,
    "iata" : "PLS",
    "lat" : 21.773599619999999,
    "name" : "Providenciales Airport",
    "icao" : "MBPV",
    "lon" : -72.265899660000002
  },
  {
    "size" : 2,
    "iata" : "AZS",
    "lat" : 19.267000199999998,
    "name" : "Samaná El Catey International Airport",
    "icao" : "MDCY",
    "lon" : -69.74199677
  },
  {
    "size" : 2,
    "iata" : "LRM",
    "lat" : 18.45070076,
    "name" : "Casa De Campo International Airport",
    "icao" : "MDLR",
    "lon" : -68.911796570000007
  },
  {
    "size" : 1,
    "iata" : "PUJ",
    "lat" : 18.567399980000001,
    "name" : "Punta Cana International Airport",
    "icao" : "MDPC",
    "lon" : -68.363403320000003
  },
  {
    "size" : 2,
    "iata" : "POP",
    "lat" : 19.757900240000001,
    "name" : "Gregorio Luperon International Airport",
    "icao" : "MDPP",
    "lon" : -70.569999690000003
  },
  {
    "size" : 1,
    "iata" : "SDQ",
    "lat" : 18.42970085,
    "name" : "Las Américas International Airport",
    "icao" : "MDSD",
    "lon" : -69.668899539999998
  },
  {
    "size" : 2,
    "iata" : "STI",
    "lat" : 19.406099319999999,
    "name" : "Cibao International Airport",
    "icao" : "MDST",
    "lon" : -70.60469818
  },
  {
    "size" : 1,
    "iata" : "GUA",
    "lat" : 14.583299999999999,
    "name" : "La Aurora Airport",
    "icao" : "MGGT",
    "lon" : -90.527495999999999
  },
  {
    "size" : 2,
    "iata" : "SAP",
    "lat" : 15.4526,
    "name" : "Ramón Villeda Morales International Airport",
    "icao" : "MHLM",
    "lon" : -87.923598999999996
  },
  {
    "size" : 2,
    "iata" : "RTB",
    "lat" : 16.316799,
    "name" : "Juan Manuel Galvez International Airport",
    "icao" : "MHRO",
    "lon" : -86.523003000000003
  },
  {
    "size" : 2,
    "iata" : "TGU",
    "lat" : 14.060899729999999,
    "name" : "Toncontín International Airport",
    "icao" : "MHTG",
    "lon" : -87.217201230000001
  },
  {
    "size" : 1,
    "iata" : "KIN",
    "lat" : 17.935699459999999,
    "name" : "Norman Manley International Airport",
    "icao" : "MKJP",
    "lon" : -76.787498470000003
  },
  {
    "size" : 2,
    "iata" : "MBJ",
    "lat" : 18.503700259999999,
    "name" : "Sangster International Airport",
    "icao" : "MKJS",
    "lon" : -77.913398740000005
  },
  {
    "size" : 1,
    "iata" : "ACA",
    "lat" : 16.757099149999998,
    "name" : "General Juan N Alvarez International Airport",
    "icao" : "MMAA",
    "lon" : -99.753997799999993
  },
  {
    "size" : 2,
    "iata" : "CUL",
    "lat" : 24.764499659999998,
    "name" : "Bachigualato Federal International Airport",
    "icao" : "MMCL",
    "lon" : -107.4749985
  },
  {
    "size" : 2,
    "iata" : "CZM",
    "lat" : 20.5223999,
    "name" : "Cozumel International Airport",
    "icao" : "MMCZ",
    "lon" : -86.925598140000005
  },
  {
    "size" : 1,
    "iata" : "GDL",
    "lat" : 20.521799089999998,
    "name" : "Don Miguel Hidalgo Y Costilla International Airport",
    "icao" : "MMGL",
    "lon" : -103.310997
  },
  {
    "size" : 1,
    "iata" : "HMO",
    "lat" : 29.095899580000001,
    "name" : "General Ignacio P. Garcia International Airport",
    "icao" : "MMHO",
    "lon" : -111.0479965
  },
  {
    "size" : 2,
    "iata" : "BJX",
    "lat" : 20.993500000000001,
    "name" : "Del Bajío International Airport",
    "icao" : "MMLO",
    "lon" : -101.481003
  },
  {
    "size" : 2,
    "iata" : "LAP",
    "lat" : 24.0727005,
    "name" : "Manuel Márquez de León International Airport",
    "icao" : "MMLP",
    "lon" : -110.3619995
  },
  {
    "size" : 2,
    "iata" : "MID",
    "lat" : 20.937000269999999,
    "name" : "Licenciado Manuel Crescencio Rejon Int Airport",
    "icao" : "MMMD",
    "lon" : -89.657699589999993
  },
  {
    "size" : 2,
    "iata" : "MLM",
    "lat" : 19.84989929,
    "name" : "General Francisco J. Mujica International Airport",
    "icao" : "MMMM",
    "lon" : -101.0250015
  },
  {
    "size" : 0,
    "iata" : "MEX",
    "lat" : 19.436299999999999,
    "name" : "Licenciado Benito Juarez International Airport",
    "icao" : "MMMX",
    "lon" : -99.072097999999997
  },
  {
    "size" : 1,
    "iata" : "MTY",
    "lat" : 25.7784996,
    "name" : "General Mariano Escobedo International Airport",
    "icao" : "MMMY",
    "lon" : -100.1070023
  },
  {
    "size" : 2,
    "iata" : "MZT",
    "lat" : 23.161399840000001,
    "name" : "General Rafael Buelna International Airport",
    "icao" : "MMMZ",
    "lon" : -106.26599880000001
  },
  {
    "size" : 2,
    "iata" : "PBC",
    "lat" : 19.158100130000001,
    "name" : "Hermanos Serdán International Airport",
    "icao" : "MMPB",
    "lon" : -98.371398929999998
  },
  {
    "size" : 1,
    "iata" : "PVR",
    "lat" : 20.68009949,
    "name" : "Licenciado Gustavo Díaz Ordaz International Airport",
    "icao" : "MMPR",
    "lon" : -105.25399779999999
  },
  {
    "size" : 2,
    "iata" : "QRO",
    "lat" : 20.6173,
    "name" : "Querétaro Intercontinental Airport",
    "icao" : "MMQT",
    "lon" : -100.185997
  },
  {
    "size" : 1,
    "iata" : "SJD",
    "lat" : 23.151800160000001,
    "name" : "Los Cabos International Airport",
    "icao" : "MMSD",
    "lon" : -109.7210007
  },
  {
    "size" : 1,
    "iata" : "TIJ",
    "lat" : 32.541099549999998,
    "name" : "General Abelardo L. Rodríguez International Airport",
    "icao" : "MMTJ",
    "lon" : -116.9700012
  },
  {
    "size" : 2,
    "iata" : "TAM",
    "lat" : 22.296400070000001,
    "name" : "General Francisco Javier Mina International Airport",
    "icao" : "MMTM",
    "lon" : -97.865898130000005
  },
  {
    "size" : 2,
    "iata" : "TLC",
    "lat" : 19.337099080000002,
    "name" : "Licenciado Adolfo Lopez Mateos International Airport",
    "icao" : "MMTO",
    "lon" : -99.566001889999995
  },
  {
    "size" : 1,
    "iata" : "CUN",
    "lat" : 21.036500929999999,
    "name" : "Cancún International Airport",
    "icao" : "MMUN",
    "lon" : -86.877098079999996
  },
  {
    "size" : 2,
    "iata" : "VER",
    "lat" : 19.145900730000001,
    "name" : "General Heriberto Jara International Airport",
    "icao" : "MMVR",
    "lon" : -96.187301640000001
  },
  {
    "size" : 2,
    "iata" : "ZIH",
    "lat" : 17.601600650000002,
    "name" : "Ixtapa Zihuatanejo International Airport",
    "icao" : "MMZH",
    "lon" : -101.4609985
  },
  {
    "size" : 2,
    "iata" : "ZLO",
    "lat" : 19.144800190000002,
    "name" : "Playa De Oro International Airport",
    "icao" : "MMZO",
    "lon" : -104.5589981
  },
  {
    "size" : 2,
    "iata" : "MGA",
    "lat" : 12.14150047,
    "name" : "Augusto C. Sandino (Managua) International Airport",
    "icao" : "MNMG",
    "lon" : -86.168197629999995
  },
  {
    "size" : 1,
    "iata" : "PTY",
    "lat" : 9.0713596340000002,
    "name" : "Tocumen International Airport",
    "icao" : "MPTO",
    "lon" : -79.383499150000006
  },
  {
    "size" : 1,
    "iata" : "LIR",
    "lat" : 10.593299999999999,
    "name" : "Daniel Oduber Quiros International Airport",
    "icao" : "MRLB",
    "lon" : -85.544403000000003
  },
  {
    "size" : 2,
    "iata" : "SJO",
    "lat" : 9.9938602450000005,
    "name" : "Juan Santamaria International Airport",
    "icao" : "MROC",
    "lon" : -84.208801269999995
  },
  {
    "size" : 1,
    "iata" : "SAL",
    "lat" : 13.440899999999999,
    "name" : "Monseñor Óscar Arnulfo Romero International Airport",
    "icao" : "MSLP",
    "lon" : -89.055701999999997
  },
  {
    "size" : 2,
    "iata" : "CAP",
    "lat" : 19.733000000000001,
    "name" : "Cap Haitien International Airport",
    "icao" : "MTCH",
    "lon" : -72.194702000000007
  },
  {
    "size" : 2,
    "iata" : "PAP",
    "lat" : 18.579999919999999,
    "name" : "Toussaint Louverture International Airport",
    "icao" : "MTPP",
    "lon" : -72.292503359999998
  },
  {
    "size" : 2,
    "iata" : "CMW",
    "lat" : 21.420299530000001,
    "name" : "Ignacio Agramonte International Airport",
    "icao" : "MUCM",
    "lon" : -77.847503660000001
  },
  {
    "size" : 2,
    "iata" : "SCU",
    "lat" : 19.96980095,
    "name" : "Antonio Maceo International Airport",
    "icao" : "MUCU",
    "lon" : -75.835403439999993
  },
  {
    "size" : 1,
    "iata" : "HAV",
    "lat" : 22.989200589999999,
    "name" : "José Martí International Airport",
    "icao" : "MUHA",
    "lon" : -82.409103389999999
  },
  {
    "size" : 2,
    "iata" : "HOG",
    "lat" : 20.78560066,
    "name" : "Frank Pais International Airport",
    "icao" : "MUHG",
    "lon" : -76.315101619999993
  },
  {
    "size" : 2,
    "iata" : "SNU",
    "lat" : 22.49220085,
    "name" : "Abel Santamaria Airport",
    "icao" : "MUSC",
    "lon" : -79.943603519999996
  },
  {
    "size" : 1,
    "iata" : "VRA",
    "lat" : 23.034400940000001,
    "name" : "Juan Gualberto Gomez International Airport",
    "icao" : "MUVR",
    "lon" : -81.435302730000004
  },
  {
    "size" : 1,
    "iata" : "GCM",
    "lat" : 19.2928009,
    "name" : "Owen Roberts International Airport",
    "icao" : "MWCR",
    "lon" : -81.357696529999998
  },
  {
    "size" : 2,
    "iata" : "FPO",
    "lat" : 26.558700559999998,
    "name" : "Grand Bahama International Airport",
    "icao" : "MYGF",
    "lon" : -78.69560242
  },
  {
    "size" : 1,
    "iata" : "NAS",
    "lat" : 25.039000000000001,
    "name" : "Lynden Pindling International Airport",
    "icao" : "MYNN",
    "lon" : -77.466201999999996
  },
  {
    "size" : 1,
    "iata" : "BZE",
    "lat" : 17.539100650000002,
    "name" : "Philip S. W. Goldson International Airport",
    "icao" : "MZBZ",
    "lon" : -88.308197019999994
  },
  {
    "size" : 1,
    "iata" : "RAR",
    "lat" : -21.20269966,
    "name" : "Rarotonga International Airport",
    "icao" : "NCRG",
    "lon" : -159.8059998
  },
  {
    "size" : 2,
    "iata" : "NAN",
    "lat" : -17.755399700000002,
    "name" : "Nadi International Airport",
    "icao" : "NFFN",
    "lon" : 177.44299319999999
  },
  {
    "size" : 2,
    "iata" : "TBU",
    "lat" : -21.24119949,
    "name" : "Fua'amotu International Airport",
    "icao" : "NFTF",
    "lon" : -175.1499939
  },
  {
    "size" : 2,
    "iata" : "APW",
    "lat" : -13.829999920000001,
    "name" : "Faleolo International Airport",
    "icao" : "NSFA",
    "lon" : -172.00799559999999
  },
  {
    "size" : 2,
    "iata" : "PPG",
    "lat" : -14.33100033,
    "name" : "Pago Pago International Airport",
    "icao" : "NSTU",
    "lon" : -170.71000670000001
  },
  {
    "size" : 1,
    "iata" : "PPT",
    "lat" : -17.553699000000002,
    "name" : "Faa'a International Airport",
    "icao" : "NTAA",
    "lon" : -149.60699500000001
  },
  {
    "size" : 2,
    "iata" : "NOU",
    "lat" : -22.01460075,
    "name" : "La Tontouta International Airport",
    "icao" : "NWWW",
    "lon" : 166.21299740000001
  },
  {
    "size" : 1,
    "iata" : "AKL",
    "lat" : -37.008098599999997,
    "name" : "Auckland International Airport",
    "icao" : "NZAA",
    "lon" : 174.79200739999999
  },